,ident,type,name,latitude,longitude,elevation_ft,state,municipality,service,gps_code,iata_code,local_code,website,wikipedia,keywords
0,00A,heliport,Total Rf Heliport,40.07080078125,-74.93360137939453,11.0,PA,Bensalem,False,00A,,00A,,,
1,00AA,small_airport,Aero B Ranch Airport,38.704021999999995,-101.473911,3435.0,KS,Leoti,False,00AA,,00AA,,,
2,00AK,small_airport,Lowell Field,59.94919968,-151.695999146,450.0,AK,Anchor Point,False,00AK,,00AK,,,
3,00AL,small_airport,Epps Airpark,34.86479949951172,-86.77030181884766,820.0,AL,Harvest,False,00AL,,00AL,,,
4,00AR,closed,Newport Hospital & Clinic Heliport,35.6087,-91.254898,237.0,AR,Newport,False,,,,,,00AR
5,00AS,small_airport,Fulton Airport,34.9428028,-97.8180194,1100.0,OK,Alex,False,00AS,,00AS,,,
6,00AZ,small_airport,Cordes Airport,34.305599212646484,-112.16500091552734,3810.0,AZ,Cordes,False,00AZ,,00AZ,,,
7,00CA,small_airport,Goldstone /Gts/ Airport,35.350498199499995,-116.88800048799999,3038.0,CA,Barstow,False,00CA,,00CA,,,
8,00CL,small_airport,Williams Ag Airport,39.427188,-121.76342700000001,87.0,CA,Biggs,False,00CL,,00CL,,,
9,00CN,heliport,Kitchen Creek Helibase Heliport,32.7273736,-116.45974170000001,3350.0,CA,Pine Valley,False,00CN,,00CN,,,
10,00CO,closed,Cass Field,40.622202,-104.344002,4830.0,CO,Briggsdale,False,,,,,,00CO
11,00FA,small_airport,Grass Patch Airport,28.64550018310547,-82.21900177001953,53.0,FL,Bushnell,False,00FA,,00FA,,,
12,00FD,heliport,Ringhaver Heliport,28.846599578857425,-82.34539794921875,25.0,FL,Riverview,False,00FD,,00FD,,,
13,00FL,small_airport,River Oak Airport,27.230899810791016,-80.96920013427734,35.0,FL,Okeechobee,False,00FL,,00FL,,,
14,00GA,small_airport,Lt World Airport,33.767501831054695,-84.06829833984375,700.0,GA,Lithonia,False,00GA,,00GA,,,
15,00GE,heliport,Caffrey Heliport,33.884201049804695,-84.73390197753906,957.0,GA,Hiram,False,00GE,,00GE,,,
16,00HI,heliport,Kaupulehu Heliport,19.832715,-155.980233,43.0,HI,Kailua/Kona,False,00HI,,00HI,,,
17,00ID,small_airport,Delta Shores Airport,48.145301818847656,-116.21399688720705,2064.0,ID,Clark Fork,False,00ID,,00ID,,,
18,00IG,small_airport,Goltl Airport,39.724028000000004,-101.39599399999999,3359.0,KS,McDonald,False,00IG,,00IG,,,
19,00II,heliport,Bailey Generation Station Heliport,41.64450073242188,-87.122802734375,600.0,IN,Chesterton,False,00II,,00II,,,
20,00IL,small_airport,Hammer Airport,41.97840118408203,-89.5604019165039,840.0,IL,Polo,False,00IL,,00IL,,,
21,00IN,heliport,St Mary Medical Center Heliport,41.51139831542969,-87.2605972290039,634.0,IN,Hobart,False,00IN,,00IN,,,
22,00IS,small_airport,Hayenga's Cant Find Farms Airport,40.02560043334961,-89.1229019165039,820.0,IL,Kings,False,00IS,,00IS,,,
23,00KS,small_airport,Hayden Farm Airport,38.72779846191406,-94.93049621582031,1100.0,KS,Gardner,False,00KS,,00KS,,,
24,00KY,small_airport,Robbins Roost Airport,37.409400939941406,-84.61969757080078,1265.0,KY,Stanford,False,00KY,,00KY,,,
25,00LA,heliport,Shell Chemical East Site Heliport,30.191944,-90.98083299999999,15.0,LA,Gonzales,False,00LA,,00LA,,,
26,00LL,heliport,Ac & R Components Heliport,39.66529846191406,-89.70559692382812,600.0,IL,Chatham,False,00LL,,00LL,,,
27,00LS,small_airport,Lejeune Airport,30.13629913330078,-92.4293975830078,12.0,LA,Esterwood,False,00LS,,00LS,,,
28,00MD,small_airport,Slater Field,38.75709915161133,-75.75379943847656,45.0,MD,Federalsburg,False,00MD,,00MD,,,
29,00MI,heliport,Dow Chemical Heliport,43.94940185546875,-86.41670227050781,588.0,MI,Ludington,False,00MI,,00MI,,,
30,00MN,small_airport,Battle Lake Municipal Airport,46.29999923706055,-95.70030212402344,1365.0,MN,Battle Lake,False,00MN,,00MN,,,
31,00MO,small_airport,Cooper Flying Service Airport,37.202800750732,-94.412399291992,970.0,MO,Alba,False,00MO,,00MO,,,5K8
32,00MT,closed,Sands Ranch Airport,48.537498,-109.70500200000001,2600.0,MT,Havre,False,,,,,,00MT
33,00N,small_airport,Bucks Airport,39.47320175170898,-75.1852035522461,105.0,NJ,Bridgeton,False,00N,,00N,,,
34,00NC,small_airport,North Raleigh Airport,36.08520126342773,-78.37139892578125,348.0,NC,Louisburg,False,00NC,,00NC,,,
35,00NJ,heliport,Colgate-Piscataway Heliport,40.52090072631836,-74.47460174560547,78.0,NJ,New Brunswick,False,00NJ,,00NJ,,,
36,00NK,seaplane_base,Cliche Cove Seaplane Base,44.8118612,-73.3698057,96.0,NY,Beekmantown,False,00NK,,00NK,,,
37,00NY,small_airport,Weiss Airfield,42.90010070800781,-77.49970245361328,1000.0,NY,West Bloomfield,False,00NY,,00NY,,,
38,00OH,closed,Exit 3 Airport,41.590476,-84.141583,785.0,OH,Wauseon,False,,,,,,"64D, 00OH"
39,00OI,heliport,Miami Valley Hospital Heliport,39.74530029296875,-84.1874008178711,905.0,OH,Dayton,False,00OI,,00OI,,,
40,00OK,small_airport,Gull Bay Landing Airport,36.198598,-96.21769300000001,960.0,OK,Sandsprings,False,00OK,,00OK,,,
41,00OR,heliport,Steel Systems Heliport,44.932899475097656,-123.12999725341795,195.0,OR,Salem,False,00OR,,00OR,,,
42,00PA,heliport,R J D Heliport,39.94889831542969,-75.74690246582031,402.0,PA,Coatesville,False,00PA,,00PA,,,
43,00PN,small_airport,Ferrell Field,41.2995,-80.211111,1301.0,PA,Mercer,False,00PN,,00PN,,,
44,00PS,closed,Thomas Field,40.3778,-77.365303,815.0,PA,Loysville,False,,,,,,00PS
45,00S,small_airport,Mc Kenzie Bridge State Airport,44.1832008362,-122.08899688700001,1620.0,OR,Mc Kenzie Bridge,False,00S,,00S,,https://en.wikipedia.org/wiki/McKenzie_Bridge_State_Airport,
46,00SC,small_airport,Flying O Airport,34.0093994140625,-80.26719665527344,150.0,SC,Sumter,False,00SC,,00SC,,,
47,00SD,small_airport,Homan Field,44.809158000000004,-96.498897,1590.0,SD,Gary,False,00SD,,00SD,,,
48,00TA,closed,SW Region FAA Heliport,32.8269,-97.305801,598.0,TX,Fort Worth,False,,,,,,00TA
49,00TE,heliport,Tcjc-Northeast Campus Heliport,32.847599029541016,-97.1894989013672,600.0,TX,Fort Worth,False,00TE,,00TE,,,
50,00TN,small_airport,Ragsdale Road Airport,35.515899658203125,-85.95359802246094,1100.0,TN,Manchester,False,00TN,,00TN,,,
51,00TS,small_airport,Alpine Range Airport,32.607601165771484,-97.24199676513672,670.0,TX,Everman,False,00TS,,00TS,,,
52,00TX,closed,San Jacinto Methodist Hospital Heliport,29.7377,-94.980201,19.0,TX,Baytown,False,,,,,,00TX
53,00UT,closed,Clear Creek Ranch Airport,37.247799,-112.821998,6138.0,UT,Kanab,False,,,,,,"00UT, U21"
54,00VA,small_airport,Vaughan Airport,36.57600021,-78.9991684,551.0,VA,Alton,False,00VA,,00VA,,,
55,00VI,small_airport,Groundhog Mountain Airport,36.66329956054688,-80.49949645996094,2680.0,VA,Hillsville,False,00VI,,00VI,,,
56,00W,small_airport,Lower Granite State Airport,46.67350006103501,-117.44300079346,719.0,WA,Colfax,False,00W,,00W,http://www.wsdot.wa.gov/aviation/AllStateAirports/Colfax_LowerGraniteState.htm,,0WA0
57,00WA,small_airport,Howell Airport,47.17839813232422,-122.77200317382812,150.0,WA,Longbranch,False,00WA,,00WA,,,
58,00WI,small_airport,Northern Lite Airport,44.304298400878906,-89.05010223388672,860.0,WI,Waupaca,False,00WI,,00WI,,,
59,00WN,small_airport,Hawks Run Airport,46.25,-117.2490005493164,2900.0,WA,Asotin,False,00WN,,00WN,,,
60,00WV,small_airport,Lazy J. Aerodrome,38.82889938354492,-79.86609649658203,2060.0,WV,Beverly,False,00WV,,00WV,,,
61,00WY,heliport,Mountain View Regional Hospital Heliport,42.840361,-106.224443,5210.0,WY,Casper,False,00WY,,00WY,,,
62,00XS,small_airport,L P Askew Farms Airport,33.033401489257805,-101.93399810791016,3110.0,TX,O'Donnell,False,00XS,,00XS,,,
63,01A,small_airport,Purkeypile Airport,62.94359970092773,-152.27000427246094,1950.0,AK,Purkeypile,False,01A,,01A,,,
64,01AK,heliport,Providence Seward Medical Center Heliport,60.1058739754,-149.446249008,120.0,AK,Seward,False,01AK,,01AK,,,
65,01AL,small_airport,Ware Island Airport,32.945999145507805,-86.51390075683594,344.0,AL,Clanton,False,01AL,,01AL,,,
66,01AR,heliport,Community Hospital of De Queen Heliport,34.047298431396484,-94.35489654541016,400.0,AR,De Queen,False,01AR,,01AR,,,
67,01AZ,heliport,Yat Heliport,34.60810089111328,-111.86499786376952,3300.0,AZ,Camp Verde,False,01AZ,,01AZ,,,
68,01C,closed,Grant Airport,43.341701507568,-85.775001525879,815.0,MI,Grant,False,01C,,01C,,https://en.wikipedia.org/wiki/Grant_Airport,
69,01CA,heliport,Lugo Substation Heliport,34.368240591699994,-117.370058745,3733.0,CA,Hesperia,False,01CA,,01CA,,,
70,01CL,small_airport,Swansboro Country Airport,38.79990005493164,-120.73400115966795,2594.0,CA,Placerville,False,01CL,,01CL,,,
71,01CN,heliport,Los Angeles County Sheriff's Department Heliport,34.03779983520508,-118.15399932861328,300.0,CA,Los Angeles,False,01CN,,01CN,,,
72,01CO,heliport,St Vincent General Hospital Heliport,39.24530029296875,-106.24600219726562,10175.0,CO,Leadville,False,01CO,,01CO,,,
73,01CT,heliport,Berlin Fairgrounds Heliport,41.62730026245117,-72.72750091552734,60.0,CT,Berlin,False,01CT,,01CT,,,
74,01FA,small_airport,Rybolt Ranch Airport,28.589399337768555,-81.14420318603516,55.0,FL,Orlando,False,01FA,,01FA,,,
75,01FD,heliport,Advent Health Altamonte Springs Heliport,28.666639,-81.3697,86.0,FL,Altamonte Springs,False,01FD,,01FD,,,Florida Hospital-Altamonte
76,01FL,small_airport,Cedar Knoll Flying Ranch Airport,28.78190040588379,-81.1592025756836,19.0,FL,Geneva,False,01FL,,01FL,,,
77,01GA,heliport,Medical Center Heliport,32.47930145263672,-84.9791030883789,319.0,GA,Columbus,False,01GA,,01GA,,,
78,01GE,small_airport,The Farm Airport,32.674400329589844,-82.77110290527344,375.0,GA,Wrightsville,False,01GE,,01GE,,,
79,01IA,small_airport,Stender Airport,41.66109848022461,-90.74130249023438,725.0,IA,Maysville,False,01IA,,01IA,,,
80,01ID,small_airport,Lava Hot Springs Airport,42.6082,-112.031998,5268.0,ID,Lava Hot Springs,False,01ID,,01ID,,,"Formerly 00E, ID26"
81,01II,small_airport,Myers Field,39.8849983215332,-86.50669860839844,950.0,IN,Lizton,False,01II,,01II,,,
82,01IL,heliport,Hoopeston Community Memorial Hospital Heliport,40.45859909057617,-87.65950012207031,583.0,IL,Hoopeston,False,01IL,,01IL,,,
83,01IN,heliport,Community Hospital Heliport,40.13090133666992,-85.69580078125,890.0,IN,Anderson,False,01IN,,01IN,,,
84,01IS,small_airport,William E. Koenig Airport,39.01620101928711,-90.31819915771484,670.0,IL,Dow,False,01IS,,01IS,,,
85,01J,small_airport,Hilliard Airpark,30.68630027770996,-81.90570068359375,59.0,FL,Hilliard,False,01J,,01J,,,
86,01K,small_airport,Caldwell Municipal Airport,37.03609848022461,-97.5864028930664,1157.0,KS,Caldwell,False,01K,,01K,,,
87,01KS,small_airport,Flying N Ranch Airport,38.54059982299805,-97.00330352783205,1485.0,KS,Lost Springs,False,01KS,,01KS,,,
88,01KY,heliport,Lourdes Hospital Heliport,37.051700592041016,-88.64689636230469,419.0,KY,Paducah,False,01KY,,01KY,,,
89,01LA,small_airport,Barham Airport,32.638999938964844,-91.77369689941406,90.0,LA,Oak Ridge,False,01LA,,01LA,,,
90,01LL,small_airport,Schumaier Restricted Landing Area,38.12580108642578,-89.46389770507812,555.0,IL,Pinckneyville,False,01LL,,01LL,,,
91,01LS,small_airport,Country Breeze Airport,30.70599937438965,-91.07740020751952,125.0,LA,Slaughter,False,01LS,,01LS,,,
92,01MA,heliport,Compaq Andover Heliport,42.625099182128906,-71.18009948730469,140.0,MA,Andover,False,01MA,,01MA,,,
93,01MD,seaplane_base,Annapolis Seaplane Base,38.999199,-76.456001,,MD,Annapolis,False,01MD,,01MD,,,
94,01ME,seaplane_base,Saint Peter's Seaplane Base,46.77890014648438,-68.50029754638672,608.0,ME,Portage Lake,False,01ME,,01ME,,,
95,01MI,heliport,Flow Through Terminal Heliport,43.04949951171875,-83.67970275878906,736.0,MI,Flint,False,01MI,,01MI,,,
96,01MN,seaplane_base,Barnes Seaplane Base,47.89960098266602,-92.55740356445312,1358.0,MN,Cook,False,01MN,,01MN,,,
97,01MO,heliport,Highway Patrol Troop C Headquarters Heliport,38.641700744628906,-90.48429870605469,615.0,MO,Town and Country,False,01MO,,01MO,,,
98,01MT,small_airport,Crystal Lakes Resort Airport,48.789100646972656,-114.87999725341795,3141.0,MT,Fortine,False,01MT,,01MT,,,
99,01NC,small_airport,Topsail Airpark,34.47529983520508,-77.5813980102539,65.0,NC,Holly Ridge,False,01NC,,01NC,,,
100,01NE,small_airport,Detour Airport,40.84360122680664,-100.65299987792969,3000.0,NE,Wellfleet,False,01NE,,01NE,,,
101,01NH,small_airport,Moore Airfield,43.6445,-72.086998,835.0,NH,Canaan,False,01NH,,01NH,,,Enfield
102,01NJ,heliport,Albert Guido Memorial Heliport,40.741798400878906,-74.13710021972656,10.0,NJ,Newark,False,01NJ,,01NJ,,,
103,01NM,small_airport,Champion Ranch Airport,33.008611,-104.540278,3630.0,NM,Artesia,False,01NM,,01NM,,,
104,01NV,small_airport,Lantana Ranch Airport,38.76390075683594,-119.0270004272461,4600.0,NV,Yerington,False,01NV,,01NV,,,
105,01NY,closed,Vassar Hospital Heliport,41.694187,-73.935582,100.0,NY,Poughkeepsie,False,,,,,,01NY
106,01OI,heliport,Galion Community Hospital Heliport,40.73059844970703,-82.80159759521484,1140.0,OH,Galion,False,01OI,,01OI,,,
107,01OK,closed,Lawrence Airport,35.294498,-98.636496,1525.0,OK,Eakly,False,,,,,,01OK
108,01OR,closed,Red & White Flying Service Airport,43.119301,-121.044997,4346.0,OR,Silver Lake,False,,,,,,01OR
109,01PA,closed,Pine Heliport,40.655602,-80.050903,1215.0,PA,Mars,False,,,,,,01PA
110,01PN,small_airport,Bierly(Personal Use) Airport,40.93059921264648,-77.73889923095703,960.0,PA,Bellefonte,False,01PN,,01PN,,,
111,01PS,small_airport,Nort's Resort Airport,41.59590148925781,-76.02960205078125,1040.0,PA,Meshoppen,False,01PS,,01PS,,,
112,01SC,small_airport,York Airport,35.032100677490234,-81.25279998779297,779.0,SC,York,False,01SC,,01SC,,,
113,01TA,heliport,Thirty Thirty Matlock Office Center Heliport,32.694198608398445,-97.11579895019531,630.0,TX,Arlington,False,01TA,,01TA,,,
114,01TE,small_airport,Smith Field,32.737598419189446,-96.4280014038086,505.0,TX,Forney,False,01TE,,01TE,,,
115,01TN,small_airport,Colonial Air Park,34.995899200439446,-89.73059844970703,370.0,TN,Collierville,False,01TN,,01TN,,,
116,01TS,closed,St Joseph Hospital Heliport,32.7285,-97.324501,675.0,TX,Fort Worth,False,,,,,,01TS
117,01TX,small_airport,Mims Farm Ultralightport,32.38759994506836,-96.87750244140624,610.0,TX,Waxahachie,False,01TX,,01TX,,,
118,01U,small_airport,Duckwater Airport,38.851600646972656,-115.63400268554688,5124.0,NV,Duckwater,False,01U,,01U,,,
119,01UT,small_airport,La Sal Junction Airport,38.30830001831055,-109.39600372314452,6000.0,UT,La Sal,False,01UT,,01UT,,,
120,01VA,small_airport,Pickles Airport,39.125,-77.9250030518,500.0,VA,Berryville,False,01VA,,01VA,,,
121,01WA,heliport,Willapa Harbor Heliport,46.66320037841797,-123.81199645996094,154.0,WA,South Bend,False,01WA,,01WA,,,
122,01WI,small_airport,Prehn Cranberry Company Airport,44.0099983215332,-90.38919830322266,930.0,WI,Tomah,False,01WI,,01WI,,,
123,01WN,heliport,Whidbey General Hospital Heliport,48.2134017944336,-122.68499755859376,103.0,WA,Coupeville,False,01WN,,01WN,,,
124,01WT,heliport,Odyssey Heliport,47.518178000000006,-122.210908,20.0,WA,Renton,False,01WT,,01WT,,,
125,01WY,small_airport,Keyhole Airport,44.34719848632813,-104.81099700927734,4250.0,WY,Moorcroft,False,01WY,,01WY,,,
126,01XA,heliport,Seton Medical Center Hays Heliport,30.007222,-97.85333299999999,715.0,TX,Kyle,False,01XA,,01XA,,,
127,01XS,heliport,Meadowood Ranch Heliport,32.020198822021484,-95.74549865722656,500.0,TX,Athens,False,01XS,,01XS,,,
128,02AK,small_airport,Rustic Wilderness Airport,61.87689971923828,-150.09800720214844,190.0,AK,Willow,False,02AK,,02AK,,,
129,02AL,small_airport,Bass Field,30.37150001525879,-87.76439666748047,61.0,AL,Foley,False,02AL,,02AL,,,
130,02AR,closed,Three Rivers Airport,34.822445,-92.44442,264.0,AR,Little Rock,False,,,,,,02AR
131,02AZ,closed,Winchester Farm Airstrip,32.376401,-109.936996,4200.0,AZ,Willcox,False,,,,,,02AZ
132,02CA,heliport,Swepi Beta Platform Ellen Heliport,33.58250045776367,-118.12899780273438,122.0,CA,Huntington Beach,False,02CA,,02CA,,,
133,02CD,small_airport,Shannon Field,34.129600524902344,-90.52400207519531,165.0,MS,Clarksdale,False,02CD,,02CD,,,
134,02CL,small_airport,Conover Air Lodge Airport,34.761101000000004,-119.058998,5160.0,CA,Frazier Park,False,02CL,,02CL,,,04L
135,02CO,small_airport,Mc Cullough Airport,37.64329910279999,-106.04699707,7615.0,CO,Monte Vista,False,02CO,,02CO,,,
136,02CT,heliport,Strangers Point Heliport,41.91960144042969,-72.44450378417969,540.0,CT,Ellington,False,02CT,,02CT,,,
137,02FA,small_airport,Osborn Airfield,28.52669906616211,-81.87480163574219,121.0,FL,Groveland,False,02FA,,02FA,,,
138,02FL,closed,Cuchens Airport,30.642527,-86.118779,215.0,FL,Defuniak Springs,False,,,,,,02FL
139,02GA,small_airport,Doug Bolton Field,34.202598571777344,-83.42900085449219,884.0,GA,Commerce,False,02GA,,02GA,,,
140,02GE,small_airport,Etowah Fields Airport,34.17530059814453,-84.92440032958984,710.0,GA,Euharlee,False,02GE,,02GE,,,
141,02HI,heliport,K3 Helipad Heliport,21.36199951171875,-157.9510040283203,9.0,HI,Pearl Harbor,False,02HI,,02HI,,,
142,02IA,heliport,Boone County Hospital Heliport,42.05609893798828,-93.87799835205078,1160.0,IA,Boone,False,02IA,,02IA,,,
143,02ID,small_airport,Morgan Ranch Airport,44.55550003051758,-115.30500030517578,5634.0,ID,Cascade,False,02ID,,02ID,,,
144,02II,small_airport,King Ultralightport,40.06230163574219,-86.21050262451172,925.0,IN,Westfield,False,02II,,02II,,,
145,02IN,small_airport,Diamond P. Field,40.208900451660156,-85.54080200195312,904.0,IN,Muncie,False,02IN,,02IN,,,
146,02IS,heliport,Condell Medical Center Heliport,42.274600982666016,-87.9572982788086,762.0,IL,Libertyville,False,02IS,,02IS,,,
147,02KS,small_airport,Jmj Landing Airport,39.22219848632813,-96.0552978515625,1170.0,KS,St Marys,False,02KS,,02KS,,,
148,02KT,heliport,St Claire Healthcare Heliport,38.181441,-83.44331899999999,781.0,KY,Morehead,False,02KT,,02KT,,,
149,02KY,heliport,Boone National Guard Heliport,38.18339920043945,-84.89990234375,760.0,KY,Frankfort,False,02KY,,02KY,,,
150,02LA,heliport,La State Police Troop G Heliport,32.531299591064446,-93.6602020263672,168.0,LA,Bossier City,False,02LA,,02LA,,,
151,02LS,heliport,Windy Hill Heliport,30.14830017089844,-91.91899871826172,25.0,LA,Broussard,False,02LS,,02LS,,,
152,02MA,heliport,Cuttyhunk Heliport,41.41960144042969,-70.927001953125,9.0,MA,Gosnold,False,02MA,,02MA,,,
153,02MD,small_airport,Garner Field,38.672544,-76.709739,141.0,MD,Brandywine,False,02MD,,02MD,,,
154,02ME,small_airport,Nadeau's Airfield,43.5373,-70.929397,700.0,ME,Acton,False,02ME,,02ME,,,Old Acton Airfield
155,02MI,small_airport,Fairplains Airpark,43.15710067749024,-85.14849853515625,850.0,MI,Greenville,False,02MI,,02MI,,,
156,02MN,small_airport,Greenbush Municipal Airport,48.68330001831055,-96.19200134277344,1070.0,MN,Greenbush,False,02MN,,02MN,,,
157,02MO,small_airport,Troy Airpark,39.04999923706055,-91.03350067138672,650.0,MO,Troy,False,02MO,,02MO,,,
158,02MS,small_airport,Watts Field,34.100101470947266,-90.8468017578125,153.0,MS,Rochdale,False,02MS,,02MS,,,
159,02MT,closed,Barrett Field,47.2374,-111.74304,3350.0,MT,Cascade,False,,,,,,02MT
160,02MU,closed,Timber Line Airpark,36.654233000000005,-93.79741800000001,1550.0,MO,Cassville,False,,,,,,02MU
161,02NC,heliport,Race City Heliport,35.541111,-80.597778,809.0,NC,Landis,False,02NC,,02NC,,,
162,02NE,small_airport,Benes Service Airport,41.074501037597656,-96.90450286865234,1550.0,NE,Valparaiso,False,02NE,,02NE,,,
163,02NH,seaplane_base,Iroquois Landing Seaplane Base,44.65710067749024,-71.21910095214844,1180.0,NH,Dummer,False,02NH,,02NH,,,
164,02NJ,heliport,Penske Heliport,40.55730056762695,-74.46710205078125,78.0,NJ,Piscataway,False,02NJ,,02NJ,,,
165,02NV,small_airport,Paiute Meadows Airport,41.30329895019531,-118.5979995727539,4443.0,NV,Winnemucca,False,02NV,,02NV,,,
166,02NY,heliport,Hansen Heliport,43.13259887695313,-75.65550231933594,435.0,NY,Durhamville,False,02NY,,02NY,,,
167,02OH,small_airport,Zimmerman Airport,41.37639999389648,-83.08329772949219,614.0,OH,Fremont,False,02OH,,02OH,,,
168,02OI,small_airport,Murtha Airport,41.80199813842773,-80.56539916992188,950.0,OH,Conneaut,False,02OI,,02OI,,,
169,02OK,closed,Canon Heliport,35.458401,-97.525297,1191.0,OK,Oklahoma City,False,,,02OK,,,02OK
170,02OR,small_airport,Rowena Dell Airport,45.68149948120117,-121.31600189208984,705.0,OR,The Dalles,False,02OR,,02OR,,,
171,02P,heliport,Stottle Memorial Heliport,40.403596,-77.556602,591.0,PA,Honey Grove,False,,,02P,,,"EWT 4,"
172,02PA,heliport,Lag Iii Heliport,40.43830108642578,-79.7699966430664,1070.0,PA,Monroeville,False,02PA,,02PA,,,
173,02PN,heliport,Peco Berwyn Heliport,40.06959915161133,-75.4552001953125,390.0,PA,Berwyn,False,02PN,,02PN,,,
175,02PS,small_airport,Hughes Ultralightport,41.90060043334961,-77.23030090332031,1700.0,PA,Tioga,False,02PS,,02PS,,,
176,02SC,small_airport,Harpers Airport,32.758499145507805,-81.22480010986328,111.0,SC,Estill,False,02SC,,02SC,,,
177,02T,small_airport,Wise River Airport,45.76910018920898,-112.98200225830078,5830.0,MT,Wise River,False,02T,,02T,,,
178,02TA,heliport,Matagorda Shore Facility Heliport,28.721399307250977,-95.8738021850586,5.0,TX,Matagorda,False,02TA,,02TA,,,
179,02TE,heliport,Baylor Medical Center Heliport,32.395401000976555,-96.86419677734376,560.0,TX,Waxahachie,False,02TE,,02TE,,,
180,02TN,small_airport,Ellis Field,35.780601501464844,-86.58419799804688,840.0,TN,Murfreesboro,False,02TN,,02TN,,,
181,02TS,closed,FWOMC Heliport,32.747601,-97.370003,684.0,TX,Fort Worth,False,,,,,,02TS
182,02TX,small_airport,The Palms At Kitty Hawk Airport,33.3704032898,-101.92288208,3235.0,TX,New Home,False,02TX,,02TX,,,
183,02UT,small_airport,Lucin Airport,41.36629867553711,-113.84300231933594,4412.0,UT,Lucin,False,02UT,,02UT,,,
184,02VA,small_airport,The Greenhouse Airport,38.43569946289063,-77.8572006225586,320.0,VA,Culpeper,False,02VA,,02VA,,,
185,02VG,heliport,Northstar Aviation Heliport,36.63880157470703,-82.11669921875,1850.0,VA,Bristol,False,02VG,,02VG,,,
186,02WA,small_airport,Cawleys South Prairie Airport,47.15230178833008,-122.09400177001952,690.0,WA,South Prairie,False,02WA,,02WA,,,
187,02WI,small_airport,Beer Airport,45.031898498535156,-92.65579986572266,920.0,WI,Hudson,False,02WI,,02WI,,,
188,02WN,small_airport,Fowler Field,48.74580001831055,-119.31900024414062,2150.0,WA,Tonasket,False,02WN,,02WN,,,
189,02XA,small_airport,JLS Farms Airport,33.591319,-95.882864,675.0,TX,Honey Grove,False,02XA,,02XA,,,
190,02XS,small_airport,Seidel Ranch Airport,30.1476993560791,-97.66280364990234,510.0,TX,Elroy,False,02XS,,02XS,,,
191,03AA,heliport,Trapper T Heliport,61.55605500000001,-149.284527,159.0,AK,Palmer,False,03AA,,03AA,,,
192,03AK,seaplane_base,Joe Clouds Seaplane Base,60.72722244262695,-151.13278198242188,150.0,AK,Kenai,False,03AK,,03AK,,,
193,03AL,heliport,Highland Medical Center Heliport,34.662603999999995,-86.046774,628.0,AL,Scottsboro,False,03AL,,03AL,,,Jackson County Hospital Heliport
194,03AR,heliport,Hscmh Heliport,34.357601165771484,-92.78849792480469,350.0,AR,Malvern,False,03AR,,03AR,,,
195,03AZ,small_airport,Thompson International Aviation Airport,31.43339920043945,-110.08399963378906,4275.0,AZ,Hereford,False,03AZ,,03AZ,,,
196,03CA,heliport,Grossmont Hospital Heliport,32.779484000000004,-117.006952,634.0,CA,La Mesa,False,03CA,,03CA,,,
197,03CO,small_airport,Kugel-Strong Airport,40.2125015259,-104.744003296,4950.0,CO,Platteville,False,03CO,,03CO,,,
198,03FA,small_airport,Lake Persimmon Airstrip,27.35309982299805,-81.40809631347656,70.0,FL,Lake Placid,False,03FA,,03FA,,,
199,03FD,closed,Tharpe Airport,30.8288,-85.731003,115.0,FL,Bonifay,False,,,,,,03FD
200,03FL,heliport,Ranger Heliport,26.68370056152344,-80.18730163574219,20.0,FL,West Palm Beach,False,03FL,,03FL,,,
201,03GA,small_airport,HIA Airport,32.5623056,-81.8576944,238.0,IN,Statesboro,False,03GA,,03GA,,,
202,03I,closed,Clarks Dream Strip,39.644199,-83.018204,680.0,OH,Circleville,False,,,,,,03I
203,03IA,small_airport,East Field,41.58190155029297,-92.4613037109375,954.0,IA,Montezuma,False,03IA,,03IA,,,
204,03ID,small_airport,Flying Y Ranch Airport,44.7943000793457,-116.53299713134766,3180.0,ID,Council,False,03ID,,03ID,,,
205,03II,small_airport,Davis Field Ultralightport,37.962001800500005,-87.77890014649999,465.0,IN,Mount Vernon,False,03II,,03II,,,
206,03IL,small_airport,Wix Airport,41.40230178833008,-87.81670379638672,750.0,IL,Monee,False,03IL,,03IL,,,
207,03IN,small_airport,Heinzman Airport,40.18000030517578,-86.01249694824219,850.0,IN,Arcadia,False,03IN,,03IN,,,
208,03IS,heliport,OSF St Anthony's Health Center Heliport,38.904999,-90.173401,580.0,IL,Alton,False,03IS,,03IS,,,St Anthony's Hospital
209,03KS,heliport,Valley Grain Heliport,39.86470031738281,-95.26409912109376,1160.0,KS,Highland,False,03KS,,03KS,,,
210,03KY,small_airport,Flying H Farms Airport,37.79169845581055,-87.54139709472656,385.0,KY,Henderson,False,03KY,,03KY,,,
211,03LA,heliport,Damien Heliport,30.19960021972656,-91.12789916992188,25.0,LA,Carville,False,03LA,,03LA,,,
212,03LS,heliport,Fmc Nr 1 Heliport,32.15900039672852,-91.70800018310548,79.0,LA,Winnsboro,False,03LS,,03LS,,,
213,03M,seaplane_base,Lakeside Marina Seaplane Base,44.320899963378906,-69.88950347900389,165.0,ME,East Winthrop,False,03M,,03M,,,
214,03MA,small_airport,Hadley Airport,42.39310073852539,-72.552001953125,150.0,MA,Hadley,False,03MA,,03MA,,,
215,03MD,heliport,Upper Chesapeake Medical Center Heliport,39.522499084472656,-76.32669830322266,302.0,MD,Bel Air,False,03MD,,03MD,,,
216,03ME,small_airport,Maple Ridge Airport,44.08420181274414,-70.6272964477539,556.0,ME,Harrison,False,03ME,,03ME,,,
217,03MI,heliport,Harold Miller Heliport,43.55089950561523,-83.86219787597656,585.0,MI,Bay City,False,03MI,,03MI,,,
218,03MN,small_airport,Nauerth Land Ranch Airport,43.62519836425781,-95.22470092773438,1435.0,MN,Lakefield,False,03MN,,03MN,,,
219,03MO,closed,Cahoochie Airport,37.884499,-93.131599,1010.0,MO,Urbana,False,,,,,,03MO
220,03MS,heliport,Vicksburg Medical Center Heliport,32.318801879882805,-90.8832015991211,110.0,MS,Vicksburg,False,03MS,,03MS,,,
221,03MT,small_airport,Cascade Field,47.267327,-111.71748000000001,3580.0,MT,Cascade,False,3MT7,,3MT7,,,03MT
222,03MU,small_airport,Mc Donnell Airport,38.4925003052,-94.41249847410002,874.0,MO,Archie,False,03MU,,03MU,,,
224,03NC,small_airport,Pilots Ridge Airport,34.10430145263672,-77.9041976928711,35.0,NC,Carolina Beach,False,03NC,,03NC,,,
225,03ND,small_airport,Olafson Brothers Airport,48.62639999389648,-97.8290023803711,1045.0,ND,Edinburg,False,03ND,,03ND,,,
226,03NE,small_airport,Hyde Ranch Airport,41.5463981628418,-99.3311996459961,2430.0,NE,Comstock,False,03NE,,03NE,,,
227,03NH,heliport,Lorden Heliport,42.81539916992188,-71.12439727783203,400.0,NH,Milford,False,03NH,,03NH,,,
228,03NJ,closed,At&T Heliport,40.668713000000004,-74.410152,360.0,NJ,Berkeley Heights,False,,,,,,03NJ
229,03NV,small_airport,Llama Ranch Airport,40.58440017700195,-115.2979965209961,6120.0,NV,Ruby Valley,False,03NV,,03NV,,,
230,03NY,small_airport,Talmage Field,40.95840072631836,-72.716796875,95.0,NY,Riverhead,False,03NY,,03NY,,,
231,03OH,small_airport,Gibbs Field,41.418399810791016,-83.01740264892578,580.0,OH,Fremont,False,03OH,,03OH,,,
232,03OI,heliport,Marymount Hospital Heliport,41.4208984375,-81.59980010986328,890.0,OH,Garfield Heights,False,03OI,,03OI,,,
233,03OK,small_airport,Sahoma Lake Airport,36.04119873046875,-96.1613998413086,890.0,OK,Sapulpa,False,03OK,,03OK,,,
234,03OR,small_airport,Powwatka Ridge Airport,45.85540008544922,-117.48400115966795,3340.0,OR,Troy,False,03OR,,03OR,,,
235,03PA,heliport,Collegeville Heliport,40.162899017333984,-75.4656982421875,197.0,PA,Collegeville,False,03PA,,03PA,,,
236,03PN,heliport,M.P. Metals Heliport,41.066860999999996,-76.180806,479.0,PA,Berwick,True,03PN,,03PN,,,
237,03PR,small_airport,Sun View Field Airport,39.065946999999994,-94.92170300000001,980.0,KS,Bonner Springs,False,03PR,,03PR,,,
238,03PS,closed,Ziggy's Field,40.849998,-77.905602,1050.0,PA,Bellefonte,False,,,,,,03PS
239,03S,small_airport,Sandy River Airport,45.40179824829102,-122.22899627685548,704.0,OR,Sandy,False,03S,,03S,,https://en.wikipedia.org/wiki/Sandy_River_Airport,
240,03SC,heliport,Seacoast Medical Center Heliport,33.865001678466804,-78.66190338134766,73.0,SC,Little River,False,03SC,,03SC,,,
241,03TA,closed,Gay Hill Farm Airport,30.262698999999998,-96.500198,505.0,TX,Gay Hill,False,,,,,,03TA
242,03TE,small_airport,Barronena Ranch Airport,27.491100311279297,-98.66950225830078,600.0,TX,Hebbronville,False,03TE,,03TE,,,
243,03TN,heliport,Eagles Landing Heliport,35.92250061035156,-83.57939910888672,1000.0,TN,Sevierville,False,03TN,,03TN,,,
244,03TS,heliport,Shannon Medical Center Heliport,31.45989990234375,-100.43800354003906,1825.0,TX,San Angelo,False,03TS,,03TS,,,
245,03TX,heliport,M D K Field,29.581600189208984,-95.30719757080078,50.0,TX,Pearland,False,03TX,,03TX,,,
246,03UT,small_airport,A Z Minerals Corporation Airport,37.12080001831055,-109.98600006103516,5315.0,UT,Mexican Hat,False,03UT,,03UT,,,
247,03VA,closed,Whipoorwill Springs Airport,38.66460037231445,-77.57969665527344,250.0,VA,Nokesville,False,03VA,,03VA,,,
248,03WA,small_airport,Spangle Field,47.40819931030274,-117.37200164794922,2440.0,WA,Spangle,False,03WA,,03WA,,,
249,03WI,small_airport,Zink Airport,44.028873,-88.883945,880.0,WI,Berlin,False,03WI,,03WI,,,
250,03WN,small_airport,Aerostone Ranch Airport,45.875,-120.66999816894531,2320.0,WA,Goldendale,False,03WN,,03WN,,,
251,03XS,small_airport,Creekside Airport,31.318099975585934,-100.75399780273438,2100.0,TX,Mertzon,False,03XS,,03XS,,,
252,04AA,small_airport,Phil's Airport,60.535833,-150.81138700000002,250.0,AK,Soldotna,False,04AA,,04AA,,,
253,04AL,heliport,Anniston AHP (Anniston Army Depot),33.62639999,-85.96720123,686.0,AL,Anniston,False,04AL,,04AL,,,
254,04AR,heliport,Saline Memorial Hospital Heliport,34.574319,-92.586047,430.0,AR,Benton,False,04AR,,04AR,,,
255,04AZ,small_airport,Chinle Airport,36.15420150756836,-109.5510025024414,5515.0,AZ,Chinle,False,04AZ,,04AZ,,,
256,04CA,small_airport,Gray Butte Field,34.5639,-117.675003,3020.0,CA,Palmdale,False,KGXA,,04CA,,,
257,04CL,small_airport,Hunt's Sky Ranch Airport,33.08169937133789,-116.44100189208984,2310.0,CA,Julian,False,04CL,,04CL,,,
258,04CT,heliport,Shingle Mill Heliport,41.75510025024414,-73.05239868164062,880.0,CT,Harwinton,False,04CT,,04CT,,,
259,04F,closed,De Leon Municipal Airport,32.098801,-98.525325,1293.0,TX,De Leon,False,,,,,,04F
260,04FA,small_airport,Richards Field,25.55870056152344,-80.51509857177734,9.0,FL,Homestead,False,04FA,,04FA,,,
261,04FD,heliport,Tampa General Hospital Brandon Healthplex Heliport,27.929371999999997,-82.33698100000001,37.0,FL,Brandon,False,04FD,,04FD,,,
262,04FL,small_airport,Cross Creek Farms Airport,29.23940086364746,-81.22200012207031,30.0,FL,Ormond,False,04FL,,04FL,,,
263,04I,small_airport,Columbus Southwest Airport,39.91120147705078,-83.18879699707031,920.0,OH,Columbus,False,04I,,04I,,,
264,04IA,small_airport,Middlekoop Airport,41.08829879760742,-92.05460357666016,801.0,IA,Packwood,False,04IA,,04IA,,,
265,04ID,small_airport,Lanham Field,43.87770080566406,-116.53700256347656,2343.0,ID,Emmett,False,04ID,,04ID,,,
266,04II,small_airport,Turkey Run Airport,41.13059997558594,-84.99410247802734,765.0,IN,New Haven,False,04II,,04II,,,
267,04IL,small_airport,Schertz Aerial Service - Hudson Airport,40.6375007629,-89.0070037842,755.0,IL,Hudson,False,04IL,,04IL,,,
268,04IN,seaplane_base,Lake Gage Seaplane Base,41.701389,-85.113056,954.0,IN,Angola,False,04IN,,04IN,,,
269,04IS,small_airport,Van Gorder Airport,40.1786003112793,-88.56900024414062,728.0,IL,Mansfield,False,04IS,,04IS,,,
270,04KS,heliport,Robinson Industries Heliport,38.97890090942383,-95.2197036743164,835.0,KS,Lawrence,False,04KS,,04KS,,,
271,04KY,small_airport,Natchez Trace Farm Airport,37.135101318359375,-85.78939819335938,710.0,KY,Hiseville,False,04KY,,04KY,,,
272,04LA,heliport,St James Heliport,30.051111,-90.70222199999999,10.0,LA,Lutcher,False,04LA,,04LA,,,
273,04LL,small_airport,Brunner Airport,42.13610076904297,-88.28759765625,750.0,IL,West Dundee,False,04LL,,04LL,,,
274,04LS,heliport,La National Guard Heliport,30.44610023498535,-91.10530090332031,52.0,LA,Baton Rouge,False,04LS,,04LS,,,
275,04MA,closed,Goddard Field (Airport),42.8097991943,-71.13919830319999,200.0,MA,Haverhill,False,04MA,,04MA,,,
276,04MD,heliport,Chesapeake City Heliport,39.51810073852539,-75.82140350341797,40.0,MD,Chesapeake City,False,04MD,,04MD,,,
277,04ME,small_airport,Beech Hill Airport,44.66669845581055,-69.89389801025389,625.0,ME,Mercer,False,04ME,,04ME,,,
278,04MI,small_airport,Rapids Airway Airport,42.53450012207031,-84.62830352783203,880.0,MI,Eaton Rapids,False,04MI,,04MI,,,
279,04MN,small_airport,Helblad Airport,47.985801696777344,-94.68689727783205,1195.0,MN,Kelliher,False,04MN,,04MN,,,
280,04MO,small_airport,Airpark Private Airport,39.30120086669922,-91.45149993896484,767.0,MO,Vandalia,False,04MO,,04MO,,,
281,04MS,small_airport,Nick's Flying Service Inc Airport,32.9396018982,-90.8373031616,100.0,MS,Rolling Fork,False,04MS,,04MS,,,
282,04MT,small_airport,Pluhar Airport,47.137497777799986,-106.488095,2715.0,MT,Cohagen,False,04MT,,04MT,,,
283,04NC,heliport,Western Wake Medical Center Heliport,35.739200591999996,-78.7822036743,445.0,NC,Cary,False,04NC,,04NC,,,
284,04NE,small_airport,Mc Connell Field Airport,41.159999847399995,-101.29900360100001,3035.0,NE,Sarben,False,04NE,,04NE,,,
285,04NJ,small_airport,Emmanuel Airport,39.5968017578,-75.2334976196,155.0,NJ,Elmer,False,04NJ,,04NJ,,,
286,04NV,small_airport,Kingston Ranch Airport,35.7555007935,-115.665000916,2620.0,NV,Sandy Valley,False,04NV,,04NV,,,
287,04NY,small_airport,Klaverack Airport,42.262298584,-73.6961975098,250.0,NY,Hudson,False,04NY,,04NY,,,
288,04OG,heliport,Teufel Heliport,45.530833,-123.08555600000001,185.0,OR,Forest Grove,False,04OG,,04OG,,,
289,04OH,closed,Bossow Airport,41.2477,-81.100701,1080.0,OH,Garrettsville,False,,,,,,04OH
290,04OK,heliport,Stillwater Medical Center Heliport,36.1152992249,-97.07949829100001,984.0,OK,Stillwater,False,04OK,,04OK,,,
291,04OR,small_airport,Collins Landing Strip,44.7499008179,-120.20099639899999,1500.0,OR,Mitchell,False,04OR,,04OR,,,
292,04PA,heliport,S & C Distribution Center Heliport,39.87929916379999,-75.2287979126,50.0,PA,Philadelphia,False,04PA,,04PA,,,
293,04PN,heliport,Strawbridge & Clothier Exton Heliport,40.0306619,-75.63020999999999,320.0,PA,Exton,False,04PN,,04PN,,,
294,04SC,heliport,Emergency Helipad,34.840599060100004,-82.60690307620001,994.0,SC,Easley,False,04SC,,04SC,,,
295,04SD,heliport,Cheyenne River Health Center Heliport,44.993124,-101.243011,2437.0,SD,Eagle Butte,False,04SD,,04SD,,,
296,04TA,heliport,Capitol National Bank Building Heliport,30.2710416667,-97.7446975708,540.0,TX,Austin,False,04TA,,04TA,,,
297,04TE,heliport,Veterans Affairs Medical Center Heliport,29.700199127199998,-95.38739776610001,49.0,TX,Houston,False,04TE,,04TE,,,
298,04TN,small_airport,Hensley Airpark,36.1833000183,-82.67890167239999,1430.0,TN,Chuckey,False,04TN,,04TN,,,
299,04TS,heliport,Hummingbird Heliport,30.553499221800003,-97.6061019897,690.0,TX,Hutto,False,04TS,,04TS,,,
300,04TX,small_airport,Pocock Airport,31.7322006226,-97.36889648440001,565.0,TX,China Spring,False,04TX,,04TX,,,
301,04UT,small_airport,Navajo Mountain Airport,37.0083007812,-110.794998169,6160.0,UT,Navajo Mountain Trdng Post,False,04UT,,04UT,,,
302,04V,small_airport,Saguache Municipal Airport,38.0990833,-106.1743889,7826.0,CO,Saguache,False,04V,,04V,,,
303,04VA,heliport,Russell County Medical Center Heliport,36.898,-82.07799999999999,2004.0,VA,Lebanon,True,04VA,,04VA,,,
304,04VG,small_airport,Manquin Flight Park Ultralightport,37.7144012451,-77.21179962160002,50.0,VA,Manquin,False,04VG,,04VG,,,
305,04VT,small_airport,Lightning Bolt Field Airport,44.4011001587,-72.26360321039998,2156.0,VT,Cabot,False,04VT,,04VT,,,
306,04W,small_airport,Field of Dreams Airport,46.022800445600005,-92.89540100100001,1021.0,MN,Hinckley,False,04W,,04W,,,
307,04WA,small_airport,Ox Meadows Airport,47.5817985535,-117.43699646,2345.0,WA,Spokane,False,04WA,,04WA,,,
308,04WI,small_airport,Dutch Gap Airstrip,42.523399353,-88.01670074459999,760.0,WI,Bristol,False,04WI,,04WI,,,
309,04WN,small_airport,Stillwater Creek Airport,46.963889,-119.641667,1510.0,WA,Royal City,False,04WN,,04WN,,,
310,04WV,heliport,West Virginia Univ. Hosp. Inc. Gnd. Pad #2 Heliport,39.6536111111,-79.9561111111,1137.0,WV,Morgantown,False,04WV,,04WV,,,
311,04XS,closed,Schmidts Heliport,32.5821,-97.14250200000001,625.0,TX,Mansfield,False,,,,,,"04XS, Napiers Heliport"
312,05AK,small_airport,Wasilla Creek Airpark,61.66830063,-149.18800349999998,620.0,AK,Palmer,True,05AK,,05AK,,,
313,05AL,heliport,Allen Stagefield Army Heliport,31.2311992645,-85.64969635010002,365.0,AL,Fort Rucker/Wicksburg,False,05AL,,05AL,,,
314,05AR,small_airport,Ozark Skies Airpark,36.000633,-93.57025,1900.0,AR,Kingston,False,05AR,,05AR,,,
315,05AZ,heliport,Yuma Regional Medical Center Heliport,32.682800293,-114.634002686,200.0,AZ,Yuma,False,05AZ,,05AZ,,,
316,05B,seaplane_base,Van Buren Seaplane Base,47.158901,-67.931999,440.0,ME,Van Buren,False,,,05B,,,
317,05CA,heliport,Lost Hills Sheriff's Station Heliport,34.137798309299995,-118.71399688700001,888.0,CA,Calabasas,False,05CA,,05CA,,,
318,05CL,small_airport,Pope Valley Airport,38.6106987,-122.39099884,618.0,CA,Pope Valley,False,05CL,,05CL,,,
319,05CO,small_airport,Rancho De Aereo Airport,40.2149839,-104.98442279999999,4978.0,CO,Mead,True,05CO,,05CO,,,
320,05CT,heliport,O And G Heliport,41.773700714099995,-73.1162033081,600.0,CT,Torrington,False,05CT,,05CT,,,
321,05FA,small_airport,Melanie's Airport,30.91889953613281,-86.21829986572266,295.0,FL,Florala,False,05FA,,05FA,,,
322,05FD,heliport,Aventura Heliport,25.960899353027344,-80.13919830322266,6.0,FL,North Miami Beach,False,05FD,,05FD,,,
323,05FL,small_airport,Charlton Strip,26.52309989929199,-81.4083023071289,36.0,FL,La Belle,False,05FL,,05FL,,,
324,05GA,small_airport,Raju Airport,32.071399688720696,-84.71440124511719,625.0,GA,Richland,False,05GA,,05GA,,,
325,05IA,small_airport,Spotts Field,43.13750076293945,-93.06829833984376,1155.0,IA,Nora Springs,False,05IA,,05IA,,,
326,05ID,small_airport,Running Creek Ranch Airport,45.914101,-114.835999,2969.0,ID,Grangeville,False,05ID,,05ID,,,72U
327,05II,small_airport,Reichhart Airport,41.02870178222656,-84.99720001220703,795.0,IN,New Haven,False,05II,,05II,,,
328,05IL,small_airport,Classic Landings Airport,41.156700134277344,-88.0167007446289,635.0,IL,Bonfield,False,05IL,,05IL,,,
329,05IN,small_airport,Cooper Airport,39.641998291015625,-86.50420379638672,860.0,IN,Belleville,False,05IN,,05IN,,,
330,05IS,small_airport,Hardy Airport,39.72589874267578,-89.26399993896484,605.0,IL,Mount Auburn,False,05IS,,05IS,,,
331,05KS,small_airport,Darbro Field,37.26620101928711,-95.95919799804688,945.0,KS,Elk City,False,05KS,,05KS,,,
332,05KY,small_airport,Cartersville Airport,37.53689957,-84.40720367,1070.0,KY,Berea,False,05KY,,05KY,,,
333,05LA,small_airport,Greg's Flying Service Airport,32.26530075073242,-91.6977996826172,76.0,LA,Baskin,False,05LA,,05LA,,,
334,05LL,heliport,Midwest Heliport,41.7489013671875,-87.93509674072266,710.0,IL,Willowbrook,False,05LL,,05LL,,,
335,05LS,small_airport,Grass Roots Airport,31.252199172973636,-92.47579956054688,83.0,LA,Alexandria,False,05LS,,05LS,,,
336,05M,heliport,Pauls Valley General Hospital Heliport,34.71979,-97.214237,911.0,OK,Pauls Valley,False,,,,,,"OK28, 05M"
337,05MA,heliport,Bentley Heliport,42.691200256347656,-70.91230010986328,80.0,MA,Ipswich,False,05MA,,05MA,,,
338,05MD,small_airport,Breezecroft Airport,39.250099182128906,-76.2052001953125,20.0,MD,Chestertown,False,05MD,,05MD,,,
339,05ME,small_airport,Drisko Airport,44.65700149536133,-67.55919647216797,70.0,ME,Jonesboro,False,05ME,,05ME,,,
340,05MN,heliport,Northern Pines Medical Center Heliport,47.5175001,-92.2302778,1446.0,MN,Aurora,False,05MN,,05MN,,,
341,05MO,heliport,Portageville Community Heliport,36.4297981262207,-89.68009948730469,272.0,MO,Portageville,False,05MO,,05MO,,,
342,05MS,heliport,Va Medical Center Jackson Heliport,32.31890106201172,-90.16809844970705,359.0,MS,Jackson,False,05MS,,05MS,,,
343,05MT,small_airport,Jones Landing,45.815368,-111.15216299999999,4364.0,MT,Belgrade,False,05MT,,05MT,,,
344,05NC,closed,Brunswick Community Hospital Heliport,34.008099,-78.2911,63.0,NC,Supply,False,,,,,,05NC
345,05NE,small_airport,Mc Kay Airport,41.7221984863,-98.30899810790001,2010.0,NE,Spalding,False,05NE,,05NE,,,
346,05NH,heliport,Stumpfield Heliport,42.92390060424805,-70.95140075683594,200.0,NH,Kensington,False,05NH,,05NH,,,
347,05NJ,heliport,Paulus Hook Pier Heliport,40.7140007019043,-74.03150177001953,7.0,NJ,Jersey City,False,05NJ,,05NJ,,,
348,05NV,small_airport,Baker Ranches Airport,39.0311,-114.088219,5180.0,NV,Baker,False,05NV,,05NV,,,
349,05NY,heliport,Oswego County At Pulaski Heliport,43.55199813842773,-76.09020233154297,445.0,NY,Pulaski,False,05NY,,05NY,,,
350,05OI,small_airport,Dorlon Airpark,41.28839874267578,-81.96260070800781,830.0,OH,Columbia Station,False,05OI,,05OI,,,
351,05OK,closed,Hawk Haven Airport,35.8534,-97.567497,1075.0,OK,Crescent,False,,,,,,05OK
352,05OR,small_airport,Peacock Ranch Airport,45.44150161743164,-117.35099792480469,3500.0,OR,Enterprise,False,05OR,,05OR,,,
353,05PA,heliport,PECO Mob. Heliport,39.9548,-75.178201,110.0,PA,Philadelphia,False,05PA,,05PA,,,Philadelphia Market Street Heliport
354,05PN,heliport,State Police Area Iii Heliport,40.30009841918945,-76.85800170898438,485.0,PA,Harrisburg,False,05PN,,05PN,,,
355,05PS,small_airport,Mills Brothers Airport,40.142799377441406,-77.86190032958984,1210.0,PA,Burnt Cabins,False,05PS,,05PS,,,
356,05S,small_airport,Vernonia Airfield,45.85150146484375,-123.24199676513672,647.0,OR,Vernonia,False,05S,,05S,,https://en.wikipedia.org/wiki/Vernonia_Airfield,
357,05TA,small_airport,Brandes Air Field,29.80909919738769,-96.26509857177734,276.0,TX,Sealy,False,05TA,,05TA,,,
358,05TE,small_airport,Hilde-Griff Field,30.72209930419922,-97.79139709472656,950.0,TX,Georgetown,False,05TE,,05TE,,,
359,05TN,closed,Thurmond Glenn Field,35.556998,-89.552903,285.0,TN,Covington,False,,,,,,05TN
360,05TS,small_airport,Dew Drop Airport,33.12929916381836,-97.3585968017578,750.0,TX,Justin,False,05TS,,05TS,,,
361,05TX,small_airport,Circle 'A' Ranch Airport,32.129199981689446,-97.4041976928711,608.0,TX,Blum,False,05TX,,05TX,,,
362,05UT,small_airport,Oljato Airport,37.03329849243164,-110.31700134277344,4838.0,UT,Oljato,False,05UT,,05UT,,,
363,05V,small_airport,Blanca Airport,37.41109848022461,-105.552001953125,7720.0,CO,Blanca,False,05V,,05V,,,
364,05VA,small_airport,Providence Airport,37.22420120239258,-78.4186019897461,445.0,VA,Farmville,False,05VA,,05VA,,,
365,05VT,heliport,Port of Highgate Springs Heliport,45.01330184936523,-73.08670043945312,68.0,VT,Highgate Springs,False,05VT,,05VT,,,
366,05WA,heliport,Sacred Heart Medical Center Helistop,47.64820098876953,-117.41400146484376,2220.0,WA,Spokane,False,05WA,,05WA,,,
367,05WI,small_airport,Ames Private Airport,42.651100158691406,-88.74590301513672,958.0,WI,Darien,False,05WI,,05WI,,,
368,05WN,small_airport,Flat Creek Field,48.702222,-118.0475,1570.0,WA,Kettle Falls,False,05WN,,05WN,,,
369,05XS,small_airport,Johnson Memorial Airport,33.079299926757805,-91.54319763183594,105.0,AR,Wilmot,False,05XS,,05XS,,,
370,05Y,small_airport,Henning Municipal Airport,46.30379867553711,-95.4394989013672,1455.0,MN,Henning,False,05Y,,05Y,,,
371,06AK,small_airport,June Lake Airpark,61.627618999999996,-149.575331,425.0,AK,Wasilla,False,06AK,,06AK,,,
372,06AL,heliport,Brown Stagefield Army Heliport,31.38839912414551,-85.97239685058594,415.0,AL,Fort Rucker/New Brockton,False,06AL,,06AL,,,
373,06AR,small_airport,Bondair Airport,35.54449844360352,-92.18489837646484,499.0,AR,Higden,False,06AR,,06AR,,,
374,06AZ,heliport,Mercy Gilbert Medical Center Heliport,33.28580093383789,-111.75299835205078,1280.0,AZ,Gilbert,False,06AZ,,06AZ,,,
375,06B,seaplane_base,Lucky Landing Marina and Seaplane Base,44.9070014954,-68.80500030520001,115.0,ME,Bangor,False,06B,,06B,,,
376,06CA,heliport,Sce Solar I Heliport,34.870800018310554,-116.83399963378906,1942.0,CA,Yermo,False,06CA,,06CA,,,
377,06CL,heliport,Abc7-Tv Heliport,35.15719985961914,-118.28900146484376,520.0,CA,Glendale,False,06CL,,06CL,,,
378,06CO,small_airport,Jecan Airport,37.38750076293945,-103.69100189208984,5100.0,CO,Branson,False,06CO,,06CO,,,
379,06FA,small_airport,William P Gwinn Airport,26.90839958190918,-80.32890319824219,28.0,FL,Jupiter,False,06FA,,06FA,,https://en.wikipedia.org/wiki/North_Palm_Beach_County_General_Aviation_Airport,
380,06FD,small_airport,Grass Roots Airpark,28.641700744628906,-81.88500213623047,105.0,FL,Mascotte,False,06FD,,06FD,,,
381,06FL,heliport,Morton Plant Hospital Heliport,27.953399658203125,-82.8042984008789,3.0,FL,Clearwater,False,06FL,,06FL,,,
382,06GA,heliport,Smith Heliport,33.75339889526367,-84.16210174560547,1065.0,GA,Redan,False,06GA,,06GA,,,
383,06I,seaplane_base,Patoka Reservoir Landing Area Seaplane Base,38.43339920043945,-86.69110107421875,536.0,IN,French Lick,False,06I,,06I,,,
384,06IA,small_airport,Rich Field,41.841400146484375,-91.83429718017578,880.0,IA,Walford,False,06IA,,06IA,,,
385,06ID,small_airport,Larkin Airport,43.46269989013672,-116.35900115966795,2750.0,ID,Kuna,False,06ID,,06ID,,,
386,06IL,small_airport,Humm Airport,41.5994987487793,-88.86990356445312,708.0,IL,Earlville,False,06IL,,06IL,,,
387,06IN,closed,Ellis Fly-In Airport,39.282799,-87.303596,575.0,IN,Blackhawk,False,,,,,,06IN
388,06IS,small_airport,Sinele Strip,40.5463981628418,-91.27429962158205,695.0,IL,Nauvoo,False,06IS,,06IS,,,
389,06KS,heliport,Riverside Hospital Airlift Heliport,37.69580078125,-97.37249755859376,1332.0,KS,Wichita,False,06KS,,06KS,,,
390,06KY,closed,Falcon Heliport,37.525902,-83.34490100000001,751.0,KY,Jackson,False,,,,,,06KY
391,06LA,heliport,Panther Helicopters Inc Heliport,29.84600067138672,-90.02780151367188,,LA,Belle Chasse,False,06LA,,06LA,,,
392,06LL,closed,Hammersmith Heliport,41.8736,-88.496901,812.0,IL,Elburn,False,,,,,,06LL
393,06LS,heliport,Tembec Heliport,30.70789909362793,-91.32019805908205,85.0,LA,St Francisville,False,06LS,,06LS,,,
394,06MA,heliport,The Barn Heliport,42.69060134887695,-71.60900115966797,210.0,MA,Pepperell,False,06MA,,06MA,,,
395,06MD,heliport,Bayview Heliport,39.29140090942383,-76.54630279541016,132.0,MD,Baltimore,False,06MD,,06MD,,,
396,06ME,heliport,Barker Heliport,44.415246999999994,-70.844275,649.0,ME,Bethel,False,06ME,,06ME,,,
397,06MI,heliport,W A Foote Memorial Hospital Heliport,42.2510986328125,-84.39140319824219,978.0,MI,Jackson,False,06MI,,06MI,,,
398,06MN,small_airport,Pike Field Airport,47.6519012451,-92.4167022705,1463.0,MN,Virginia,False,06MN,,06MN,,,
399,06MO,small_airport,Noahs Ark Airport,39.23059844970703,-94.8043975830078,755.0,MO,Waldron,False,06MO,,06MO,,,
400,06MT,small_airport,Torgerson Airport,48.55830001831055,-112.10900115966795,3541.0,MT,Ethridge,False,06MT,,06MT,,,
401,06N,small_airport,Randall Airport,41.43199920654297,-74.3916015625,523.0,NY,Middletown,False,06N,,06N,,,
402,06NC,small_airport,Tailwinds Airport,34.827499389648445,-78.9302978515625,163.0,NC,St. Pauls,False,06NC,,06NC,,,
403,06ND,small_airport,Fitterer's Strip,46.7489013671875,-101.66899871826172,2180.0,ND,Glen Ullin,False,06ND,,06ND,,,
404,06NE,heliport,St Marys Hospital Heliport,40.68000030517578,-95.86170196533205,1015.0,NE,Nebraska City,False,06NE,,06NE,,,
405,06NH,small_airport,Cole Farm Airport,42.92839813232422,-70.97309875488281,160.0,NH,Kensington,False,06NH,,06NH,,,
406,06NJ,closed,Chemical Bank - New Jersey Na Heliport,39.950102,-74.99960300000001,25.0,NJ,Moorestown,False,,,,,,06NJ
407,06NV,small_airport,Silver Creek Airport,39.098333000000004,-114.150277,5556.0,NV,Baker,False,06NV,,06NV,,,
408,06NY,small_airport,Murphy Field,42.84280014038086,-76.44529724121094,1100.0,NY,Auburn,False,06NY,,06NY,,,
409,06O1,heliport,Saint Elizabeth Medical Center Heliport,41.11479949951172,-80.65699768066406,1020.0,OH,Youngstown,False,06O1,,06O1,,,
410,06OH,small_airport,Hal Joy Airfield,41.50979995727539,-80.59120178222656,1160.0,OH,Williamsfield,False,06OH,,06OH,,,
411,06OI,small_airport,Green Acres Airport,39.73479843139648,-84.3822021484375,915.0,OH,New Lebanon,False,06OI,,06OI,,,
412,06OK,heliport,Albert Lodge Heliport,36.54169845581055,-94.83360290527344,900.0,OK,Grove,False,06OK,,06OK,,,
413,06OR,small_airport,Hayden Mountain Airport,45.4650993347168,-123.08000183105469,850.0,OR,Forest Grove,False,06OR,,06OR,,,
414,06PA,small_airport,Freefall Oz Airport,41.995792,-78.288152,1440.0,PA,Ceres,False,06PA,,06PA,,,"04D, Ceres Airport"
415,06PN,heliport,Schiavoni Heliport,40.382733,-76.772533,727.0,PA,Harrisburg,False,06PN,,06PN,,,
416,06PS,heliport,Cherokee Island Castle Heliport,40.40230178833008,-79.92130279541016,760.0,PA,West Homestead,False,06PS,,06PS,,,
417,06R,small_airport,Grawunder Field,29.9419002532959,-96.24610137939452,289.0,TX,Bellville,False,06R,,06R,,,
418,06SN,small_airport,Beyer Farm Airport,37.583900451660156,-97.25309753417969,1340.0,KS,Derby,False,06SN,,06SN,,,
419,06TA,small_airport,Glaser Field,30.90850067138672,-97.1168975830078,480.0,TX,Buckholts,False,06TA,,06TA,,,
420,06TE,small_airport,Ainsworth Airport,30.312700271606445,-95.0269012451172,129.0,TX,Cleveland,False,06TE,,06TE,,,
421,06TN,small_airport,Hunter STOLport,35.69729995727539,-86.95690155029297,640.0,TN,Columbia,False,06TN,,06TN,,,
422,06TS,closed,Roscoe Mc Connico Airport,32.120701000000004,-96.179101,350.0,TX,Kerens,False,,,,,,06TS
423,06TX,small_airport,Diamond N Ranch Airport,30.057600021362305,-95.81289672851562,215.0,TX,Hockley,False,06TX,,06TX,,,
424,06VA,small_airport,Mount Horeb Field,38.249000549316406,-78.85530090332031,1160.0,VA,Grottoes,False,06VA,,06VA,,,
425,06WA,heliport,N A Degerstrom Yard Heliport,47.68629837036133,-117.197998046875,2013.0,WA,Spokane,False,06WA,,06WA,,,
426,06WI,small_airport,Young Private Airport,45.66270065307617,-92.45020294189452,1075.0,WI,Frederic,False,06WI,,06WI,,,
427,06WN,small_airport,Western Airpark,46.92499923706055,-122.5530014038086,394.0,WA,Yelm,False,06WN,,06WN,,,Formerly 92W
428,06XS,small_airport,Campbell Field,33.32469940185547,-97.04419708251952,546.0,TX,Aubrey,False,06XS,,06XS,,,
429,06Y,small_airport,Herman Municipal Airport,45.83000183105469,-96.1605987548828,1068.0,MN,Herman,False,06Y,,06Y,,,
430,07AA,small_airport,Pan Lake Strip Airport,61.695963899999995,-149.9549028,357.0,AK,Willow,False,07AA,,07AA,,,
431,07AL,heliport,Tac X Stagefield Army Heliport,31.125200271606445,-85.9791030883789,132.0,AL,Fort Rucker/Samson,False,07AL,,07AL,,,
432,07AR,small_airport,Morrilton Airport,35.19449996948242,-92.80020141601562,300.0,AR,Morrilton,False,07AR,,07AR,,,
433,07AZ,closed,John C Lincoln Hospital Heliport,33.566699981689446,-112.06900024414062,1255.0,AZ,Phoenix,False,07AZ,,07AZ,,,
434,07B,small_airport,Blue Hill Airport,44.448001861572266,-68.5697021484375,360.0,ME,Blue Hill,False,07B,,07B,,,
435,07CA,heliport,West Side Hospital Heliport,35.138900756835945,-119.45099639892578,850.0,CA,Taft,False,07CA,,07CA,,,
436,07CL,small_airport,Richvale Airport,39.49769973754883,-121.77100372314452,100.0,CA,Richvale,False,07CL,,07CL,,,
437,07CO,small_airport,Comanche Creek Airport,39.26359939575195,-104.427001953125,6620.0,CO,Kiowa,False,07CO,,07CO,,,
438,07CT,closed,TNT Heliport,41.4529,-72.24960300000001,430.0,CT,Salem,False,,,,,,07CT
439,07D,small_airport,Tackaberry Airport,43.06449890136719,-82.72380065917969,764.0,MI,Avoca,False,07D,,07D,,,
440,07FA,small_airport,Ocean Reef Club Airport,25.325399398804002,-80.274803161621,8.0,FL,Key Largo,False,07FA,OCA,07FA,https://www.oceanreef.com/community/private-airport-1345.html,https://en.wikipedia.org/wiki/Ocean_Reef_Club_Airport,
441,07FD,closed,Flying G Ranch STOLport,30.417999,-83.283796,90.0,FL,Lee,False,,,,,,07FD
442,07FL,heliport,Southwest Florida Regional Medical Center Heliport,26.60540008544922,-81.8594970703125,18.0,FL,Fort Myers,False,07FL,,07FL,,,
443,07GA,small_airport,Alcovy Airport,33.674999237060554,-83.76309967041016,750.0,GA,Covington,False,07GA,,07GA,,,
444,07I,seaplane_base,Lake Monroe Seaplane Base,39.05870056152344,-86.44609832763672,538.0,IN,Bloomington,False,07I,,07I,,,
445,07ID,small_airport,Interstate Airport,42.2781982421875,-113.30500030517578,4580.0,ID,Malta,False,07ID,,07ID,,,
446,07II,heliport,St Vincent Jennings Hospital Heliport,39.01060104370117,-85.64080047607422,740.0,IN,North Vernon,False,07II,,07II,,,
447,07IN,small_airport,Gray Airport,39.57369995117188,-85.91390228271484,750.0,IN,Boggstown,False,07IN,,07IN,,,
448,07K,small_airport,Central City Municipal - Larry Reineke Field,41.1125984192,-98.0516967773,1717.0,NE,Central City,False,07K,,07K,,,
449,07KS,small_airport,Heape Field,37.73419952392578,-96.93669891357422,1321.0,KS,Augusta,False,07KS,,07KS,,,
450,07KY,small_airport,Blue Lick Airport,38.08060073852539,-85.69329833984375,532.0,KY,Louisville,False,07KY,,07KY,,,
451,07LA,closed,Air Oil Inc Nr 1 Heliport,29.937099,-90.183701,,LA,Harahan,False,,,,,,07LA
452,07LS,heliport,LA State Police Troop F Heliport,32.518100738499996,-91.98899841309999,80.0,LA,Monroe,False,07LS,,07LS,,,
453,07MA,heliport,West Pond Heliport,41.91699981689453,-70.70950317382812,149.0,MA,Plymouth,False,07MA,,07MA,,,
454,07MD,small_airport,Baugher's Orchard Airport,39.608299255371094,-77.0519027709961,700.0,MD,Westminster,False,07MD,,07MD,,,
455,07ME,heliport,Westbrook Heliport,43.73830032348633,-70.33920288085939,250.0,ME,Westbrook,False,07ME,,07ME,,,
456,07MI,small_airport,Scott Airstrip,43.864200592041016,-85.0239028930664,1065.0,MI,Lake,False,07MI,,07MI,,,
457,07MN,small_airport,Dairyview Airport,44.05500030517578,-95.90950012207031,1680.0,MN,Hadley,False,07MN,,07MN,,,
458,07MO,small_airport,Lake Sexton Airport,38.650001525878906,-93.6168975830078,880.0,MO,Warrensburg,False,07MO,,07MO,,,
459,07MT,small_airport,Glasgow Industrial Airport,48.42110061645508,-106.52799987792969,2762.0,MT,Glasgow,False,07MT,,07MT,,,
460,07N,small_airport,Bermudian Valley Airpark,40.01679992675781,-77.00389862060547,470.0,PA,Kralltown,False,07N,,07N,,,
461,07NC,small_airport,Hawks Meadow Airport,34.83319854736328,-80.7511978149414,625.0,NC,Waxhaw,False,07NC,,07NC,,,
462,07NH,seaplane_base,Diving Rock Seaplane Base,43.17559814453125,-72.06390380859375,1404.0,NH,Washington,False,07NH,,07NH,,,
463,07NJ,heliport,Hackensack UMC Palisades Heliport,40.793665999999995,-73.994863,10.0,NJ,North Bergen,False,07NJ,,07NJ,,,Palisades General Hospital Heliport
464,07NV,small_airport,Border Line Farm Airport,39.102239000000004,-114.053472,5120.0,NV,Baker,False,07NV,,07NV,,,
465,07NY,heliport,Mmc Heliport,42.66640090942383,-74.76499938964844,1320.0,NY,Monticello,False,07NY,,07NY,,,
466,07OH,closed,Tennessee Gas Heliport,39.9373,-81.683503,1025.0,OH,Claysville,False,,,,,,07OH
467,07OK,small_airport,Pleasant Valley Airport,34.633399963378906,-99.03369903564452,1322.0,OK,Snyder,False,07OK,,07OK,,,
468,07OR,small_airport,Bruce's Airport,45.42179870605469,-122.62000274658205,250.0,OR,Milwaukie,False,07OR,,07OR,,,
469,07PN,small_airport,Folmar Airport,40.998889,-78.12527800000001,1690.0,PA,Grassflat,False,07PN,,07PN,,,
470,07SN,small_airport,Churchill Airport,39.77280044555664,-99.36009979248048,1965.0,KS,Phillipsburg,False,07SN,,07SN,,,
471,07TA,small_airport,Salaika Aviation Airport,29.240519,-95.344658,30.0,TX,Danbury,False,07TA,,07TA,,,Salaika Aviation Heliport
472,07TE,small_airport,Cuddihy Field,27.721099853515625,-97.51280212402344,39.0,TX,Corpus Christi,False,07TE,,07TE,,,
473,07TN,small_airport,Corntassel Airport,35.56859970092773,-84.24109649658203,970.0,TN,Vonore,False,07TN,,07TN,,,
474,07TS,small_airport,Cross-Country Estates Airport,30.625,-97.5727996826172,690.0,TX,Georgetown,False,07TS,,07TS,,,
475,07TX,heliport,Pecks Heliport,33.18399810791016,-96.447998046875,660.0,TX,Princeton,False,07TX,,07TX,,,
476,07UT,small_airport,E Northrop Grumman Airport,41.716667,-112.447222,4480.0,UT,Howell,False,07UT,,07UT,,,"UT23, Air Force Plant 78 Airfield, ATK/Thiokol Airport"
477,07VA,small_airport,Alpha Hotel Airport,36.81959915161133,-78.78309631347656,350.0,VA,Clover,False,07VA,,07VA,,,
478,07VT,small_airport,Meadow STOLport,44.44720077514648,-72.91470336914062,801.0,VT,Jericho,False,07VT,,07VT,,,
479,07WA,heliport,Multicare Deaconess Hospital Heliport,47.651637,-117.424477,2110.0,WA,Spokane,False,07WA,,07WA,,,Deaconess Medical Center Heliport
480,07WI,closed,Bartell Strip,42.965302,-88.391502,990.0,WI,Genessee Depot,False,,,,,,07WI
481,07XS,heliport,Allen Ponderosa Heliport,32.542198181152344,-97.3917007446289,840.0,TX,Crowley,False,07XS,,07XS,,,
482,07Y,small_airport,Hill City-Quadna Mountain Airport,46.95550155639648,-93.5969009399414,1289.0,MN,Hill City,False,07Y,,07Y,,,
483,08AK,small_airport,Fisher Airport,61.569639,-149.724439,200.0,AK,Big Lake,False,08AK,,08AK,,,
484,08AL,seaplane_base,Little Lagoon Seaplane Base,30.243716999999997,-87.754678,8.0,AL,Gulf Shores,False,08AL,,08AL,,,
485,08AR,closed,Crittenden Regional Hospital Heliport,35.142046,-90.190212,206.0,AR,West Memphis,False,,,,,,08AR
486,08AZ,heliport,Mesa Police Heliport,33.41740036010742,-111.83699798583984,1240.0,AZ,Mesa,False,08AZ,,08AZ,,,
487,08B,small_airport,Merrymeeting Field,44.0,-69.88710021972656,65.0,ME,Bowdoinham,False,08B,,08B,,,
488,08CA,heliport,Pg & E Co. Placerville Svc Center Heliport,38.69490051269531,-120.8270034790039,1810.0,CA,Diamond Springs,False,08CA,,08CA,,,
489,08CL,small_airport,Kistler Ranch Airport,37.85960006713867,-120.5540008544922,1025.0,CA,Jamestown,False,08CL,,08CL,,,
490,08CN,heliport,Tulare Motor Sports #1 Heliport,36.172031,-119.30618100000001,270.0,CA,Tulare,False,08CN,,08CN,,,
491,08CO,small_airport,Terra Firma Airport,38.73249816894531,-104.04100036621094,5600.0,CO,Rush,False,08CO,,08CO,,,
492,08CT,seaplane_base,Seavair's Landing Seaplane Base,41.89599990844727,-73.09310150146484,881.0,CT,Winsted,False,08CT,,08CT,,,
493,08F,small_airport,City of Coalgate Airport,34.53179931640625,-96.23310089111328,615.0,OK,Coalgate,False,08F,,08F,,,
494,08FA,small_airport,Duda Airstrip,26.57979965209961,-81.48370361328125,35.0,FL,La Belle,False,08FA,,08FA,,,
495,08FD,small_airport,Sunniland Ranch Airport,27.363100051879886,-80.77279663085938,65.0,FL,Okeechobee,False,08FD,,08FD,,,
496,08FL,small_airport,J. H. Hendrie Farms Airport,27.08449935913086,-81.32869720458984,103.0,FL,Lake Placid,False,08FL,,08FL,,,
497,08G,heliport,Salt Fork Lodge Heliport,40.11090087890625,-81.52619934082031,960.0,OH,Cambridge,False,08G,,08G,,,
498,08GA,small_airport,Sapelo Island Airport,31.425800323486328,-81.28589630126953,12.0,GA,Darien,False,08GA,,08GA,,,
499,08ID,small_airport,Symms Airport,43.56930160522461,-116.7770004272461,2680.0,ID,Marsing,False,08ID,,08ID,,,
500,08II,heliport,Parkview Lagrange Hospital Heliport,41.645084999999995,-85.426386,943.0,IN,Lagrange,False,08II,,08II,,,Lagrange Hospital Heliport
501,08IL,closed,Harms Airstrip,41.577,-89.793999,643.0,IL,Tampico,False,,,,,,08IL
502,08IN,seaplane_base,Winona Lake Seaplane Base,41.223056,-85.830556,812.0,IN,Winona Lake,False,02D,,02D,,,08IN
503,08IS,small_airport,Hemmer RLA Restricted Landing Area,37.9777984619,-89.20290374759999,400.0,IL,Du Quoin,False,08IS,,08IS,,,
504,08KS,small_airport,Alderson Airport,39.03469848632813,-97.58000183105469,1250.0,KS,Bennington,False,08KS,,08KS,,,
505,08KY,small_airport,Boss Airport,36.972599029541016,-84.6260986328125,820.0,KY,Burnside,False,08KY,,08KY,,,
506,08LA,heliport,Air Oil Inc Nr 2 Heliport,29.952999114990234,-90.18260192871094,4.0,LA,Harahan,False,08LA,,08LA,,,
507,08LL,small_airport,Sauer Airport,41.07529830932617,-88.48919677734375,665.0,IL,Dwight,False,08LL,,08LL,,,
508,08LS,small_airport,Aeleron Airport,30.403600692749023,-92.02359771728516,51.0,LA,Grand Coteau,False,08LS,,08LS,,,
509,08MA,small_airport,Wormid Airport,42.29399871826172,-71.49620056152344,360.0,MA,Southborough,False,08MA,,08MA,,,
510,08MD,heliport,St Joseph Hospital Heliport,39.38830184936523,-76.61000061035156,470.0,MD,Towson,False,08MD,,08MD,,,
511,08ME,small_airport,Lindbergh Airport,44.81420135498047,-70.34529876708984,554.0,ME,Avon,False,08ME,,08ME,,,
512,08MI,heliport,Sparrow Hospital Heliport,42.73419952,-84.53659821,1019.0,MI,Lansing,False,08MI,,08MI,,,
513,08MN,seaplane_base,Christenson Point Seaplane Base,47.66939926147461,-93.0543975830078,1372.0,MN,Chisholm/Hibbing,False,08MN,,08MN,,,
514,08MO,small_airport,Twin Oaks Airport,37.395599365234375,-94.28379821777344,955.0,MO,Jasper,False,08MO,,08MO,,,
515,08MS,small_airport,Williams Field,34.66220093,-89.86830139,345.0,MS,Coldwater,False,08MS,,08MS,,,
516,08MT,small_airport,Clark Airport,47.06389999389648,-108.81700134277344,3450.0,MT,Grassrange,False,08MT,,08MT,,,
517,08N,small_airport,Keller Brothers Airport,40.29180145263672,-76.32879638671875,550.0,PA,Lebanon,False,08N,,08N,,,
518,08NC,small_airport,Whiteheart Farm Airport,36.06760025024414,-80.4655990600586,750.0,NC,Lewisville,False,08NC,,08NC,,,
519,08ND,small_airport,Brecht Strip,47.32310104370117,-102.0979995727539,1990.0,ND,Golden Valley,False,08ND,,08ND,,,
520,08NE,small_airport,Laurel Municipal Airport,42.43170166015625,-97.07949829101562,1467.0,NE,Laurel,False,08NE,,08NE,,,
521,08NH,heliport,Memorial Hospital Heliport,44.0612983704,-71.1358032227,574.0,NH,North Conway,False,08NH,,08NH,,,
522,08NJ,heliport,St Barnabas Medical Center Heliport,40.76259994506836,-74.30400085449219,429.0,NJ,Livingston,False,08NJ,,08NJ,,,
523,08NY,small_airport,Md1 Airport,41.36809921264648,-74.50559997558594,650.0,NY,Middletown,False,08NY,,08NY,,,
524,08OH,small_airport,Kenley Airport,41.29169845581055,-80.5636978149414,1230.0,OH,Hartford,False,08OH,,08OH,,,
525,08OK,small_airport,Parks Airport,34.93149948120117,-95.25830078125,635.0,OK,Wilburton,False,08OK,,08OK,,,
526,08OL,small_airport,Broken B Airport,35.408087,-98.60547700000001,1518.0,OK,Hydro,False,08OL,,08OL,,,
527,08OR,small_airport,Saxon Sycan Airport,42.839298248291016,-121.11699676513672,4990.0,OR,Silver Lake,False,08OR,,08OR,,,
528,08PA,heliport,Pocono Raceway Heliport,41.05839920043945,-75.49960327148438,1812.0,PA,Pocono Pines,False,08PA,,08PA,,,
529,08PN,heliport,Thomson Heliport,40.0458984375,-76.28079986572266,310.0,PA,Lancaster,False,08PN,,08PN,,,
530,08R,small_airport,Richmond Airport,41.48949813842773,-71.62059783935547,130.0,RI,West Kingston,False,08R,,08R,,,
531,08TA,heliport,Rancho Del Lago Heliport,29.95190048217773,-98.22450256347656,1208.0,TX,Fischer,False,08TA,,08TA,,,
532,08TE,small_airport,B. J. Mc Combs Sisterdale Airport,29.975331,-98.742451,1447.0,TX,Comfort,False,,,,,,08TE
533,08TS,closed,Puesta Del Sol Airport,26.881331,-98.504885,420.0,TX,La Gloria,False,,,,,,08TS
534,08TX,small_airport,Cross Wind Airport,32.858200073242195,-97.74749755859376,1040.0,TX,Weatherford,False,08TX,,08TX,,,
535,08U,small_airport,Stevens-Crosby Airport,41.51570129394531,-115.86000061035156,6397.0,NV,North Fork,False,08U,,08U,,,
536,08VA,small_airport,Springwood Airstrip,37.55400085449219,-79.74980163574219,1000.0,VA,Buchanan,False,08VA,,08VA,,,
537,08WA,closed,Manchester Laboratory Heliport,47.574298999999996,-122.547997,2.0,WA,Manchester,False,,,,,,08WA
538,08WI,closed,Pierick Airport,43.04359817504883,-90.3551025390625,1225.0,WI,Highland,False,08WI,,08WI,,,
539,08XA,small_airport,Knolle Ranch Airport,30.479253000000003,-96.50403100000001,280.0,TX,Snook,False,08XA,,08XA,,,
540,08XS,small_airport,Peterson Airport,29.10810089111328,-95.77749633789062,45.0,TX,Old Ocean,False,08XS,,08XS,,,
541,09AA,heliport,Sheldon Chalet Heliport,62.969888,-150.75375,5742.0,AK,Talkeetna,False,09AA,,09AA,,,
542,09AK,small_airport,West Beaver Airport,61.589361,-149.84733300000002,228.0,AK,Big Lake,False,09AK,,09AK,,,
543,09AR,heliport,Magnolia Hospital Heliport,33.27320098876953,-93.23989868164062,310.0,AR,Magnolia,False,09AR,,09AR,,,
544,09AZ,small_airport,Stronghold Airport,31.92530059814453,-110.03800201416016,4970.0,AZ,St David,False,09AZ,,09AZ,,,
545,09CA,heliport,Mee Memorial Hospital Heliport,36.20554,-121.132503,320.0,CA,King City,False,09CA,,09CA,,,
546,09CL,small_airport,Alta Sierra Airport,39.11380004882813,-121.05699920654295,2275.0,CA,Grass Valley,False,09CL,,09CL,,,
547,09CN,heliport,Tulare Motor Sports #2 Heliport,36.182556,-119.313572,272.0,CA,Tulare,False,09CN,,09CN,,,
548,09CO,small_airport,Cottonwood Field,38.05559921264648,-103.65299987792969,4180.0,CO,Swink,False,09CO,,09CO,,,
549,09FA,small_airport,Placid Lakes Airport,27.2455997467041,-81.41310119628906,130.0,FL,Lake Placid,False,09FA,,09FA,,,
550,09FD,small_airport,Cheryl-Lane Landings Airport,28.671100616455078,-82.0873031616211,71.0,FL,Bushnell,False,09FD,,09FD,,,
551,09FL,small_airport,Sunnybreeze Airport,27.055599212646484,-81.97059631347656,60.0,FL,Arcadia,False,09FL,,09FL,,,
552,09GA,small_airport,Sunbelt Strip,31.11129951477051,-83.68409729003906,230.0,GA,Moultrie,False,09GA,,09GA,,,
553,09I,seaplane_base,International Falls Seaplane Base,48.60580062866211,-93.37079620361328,1110.0,MN,International Falls,False,09I,,09I,,,
554,09IA,small_airport,Skydive Iowa Airport,41.74580001831055,-92.4093017578125,820.0,IA,Brooklyn,False,09IA,,09IA,,,
555,09ID,small_airport,Taylor Ranch Landing Area Airport,45.10390090942383,-114.8550033569336,3835.0,ID,Moscow,False,09ID,,09ID,,,
556,09II,small_airport,Gibbons Field,38.44729995727539,-86.44499969482422,880.0,IN,Valeene,False,09II,,09II,,,
557,09IL,closed,Silver Cross Hospital Heliport,41.536183,-88.052279,610.0,IL,Joliet,False,,,,,,09IL
558,09IN,small_airport,Gordon Airport,41.12089920043945,-85.42500305175781,850.0,IN,Columbia City,False,09IN,,09IN,,,
559,09IS,heliport,Swedish American Heliport,42.26499938964844,-89.07430267333984,874.0,IL,Rockford,False,09IS,,09IS,,,
560,09KS,small_airport,Coffman Airport,38.70700073242188,-95.13829803466795,970.0,KS,Wellsville,False,09KS,,09KS,,,
561,09KY,heliport,Baptist Hospital East Heliport,38.23899841308594,-85.63939666748047,531.0,KY,Louisville,False,09KY,,09KY,,,
562,09LA,heliport,Era Helicopters Fourchon Helibase Heliport,29.123300552368164,-90.20169830322266,2.0,LA,Grand Isle,False,09LA,,09LA,,,
563,09LL,small_airport,Pine Hill Airport,42.46810150146485,-88.74320220947266,1000.0,IL,Capron,False,09LL,,09LL,,,
564,09LS,heliport,West Feliciana Sheriff's Office Heliport,30.82439994812012,-91.38459777832031,181.0,LA,St Francisville,False,09LS,,09LS,,,
565,09MA,small_airport,Kallander Field,42.304298400878906,-71.50589752197266,403.0,MA,Southborough,False,09MA,,09MA,,,
566,09ME,small_airport,Perrotti Skyranch Airfield,43.34080123901367,-70.85469818115234,260.0,ME,Berwick,False,09ME,,09ME,,,
567,09MI,heliport,Michigan National Guard Headquarters Heliport,42.708099365234375,-84.56079864501953,842.0,MI,Lansing,False,09MI,,09MI,,,
568,09MN,small_airport,W Johnson Field,44.77999877929688,-95.6635971069336,1060.0,MN,Hazel Run,False,09MN,,09MN,,,
569,09MO,small_airport,Hogue Farm Airport,37.37839889526367,-93.36329650878906,1210.0,MO,Willard,False,09MO,,09MO,,,
570,09N,small_airport,Airhaven Airport,41.83259963989258,-73.8759994506836,450.0,NY,Staatsburg,False,09N,,09N,,,
571,09NC,small_airport,William Irving Lewis Airport,35.32929992675781,-79.02999877929688,310.0,NC,Broadway,False,09NC,,09NC,,,
572,09NE,small_airport,Summer Hill Farm Airport,41.33330154418945,-96.193603515625,1250.0,NE,Bennington,False,09NE,,09NE,,,
573,09NJ,heliport,Stonebridge Farm Helistop,40.65370178222656,-74.6865005493164,100.0,NJ,Somerville,False,09NJ,,09NJ,,,
574,09NR,small_airport,Dakota Air Ranch Airport,35.650121999999996,-79.650311,561.0,NC,Ramseur,False,09NR,,09NR,,,
575,09NY,heliport,Spring Lake Fire Department Heliport,41.92890167236328,-74.04889678955078,254.0,NY,Kingston,False,09NY,,09NY,,,
576,09OK,small_airport,Ragtime Aerodrome,36.35449981689453,-95.86389923095705,700.0,OK,Collinsville,False,09OK,,09OK,,,
577,09OR,heliport,Mid-Columbia Medical Center Heliport,45.587235,-121.163827,487.0,OR,The Dalles,False,09OR,,09OR,,https://en.wikipedia.org/wiki/Mid-Columbia_Medical_Center_Heliport,
578,09PA,small_airport,Eagle Field,40.82699966430664,-77.98809814453125,1780.0,PA,Port Matilda,False,09PA,,09PA,,,
579,09PN,heliport,Hundley Residence Heliport,40.5620002746582,-75.1427001953125,480.0,PA,Kintersville,False,09PN,,09PN,,,
580,09S,small_airport,Sullivan Lake State Airport,48.84090042114258,-117.28399658203124,2614.0,WA,Metaline Falls,False,09S,,09S,,,
581,09TA,small_airport,Lazy G Bar Ranch Airport,33.282101000000004,-97.497002,923.0,TX,Decatur,False,,,09T,,,"Formerly 82T, 09TA"
582,09TE,small_airport,Running M Ranch Airport,32.266799926757805,-97.86699676513672,787.0,TX,Glen Rose,False,09TE,,09TE,,,
583,09TN,heliport,Univ of Tennessee Medical Center Heliport,35.94169998168945,-83.94400024414062,924.0,TN,Knoxville,False,09TN,,09TN,,,
584,09TS,small_airport,Pitcock Rosillos Mountain Ranch Airport,29.48240089416504,-103.16500091552734,3100.0,TX,Marathon,False,09TS,,09TS,,,
585,09TX,small_airport,Smokey Mtn Ranch Airport,30.73909950256348,-102.02400207519531,2522.0,TX,Sheffield,False,09TX,,09TX,,,
586,09VA,small_airport,Alum Ridge STOLport,36.97650146484375,-80.493896484375,2375.0,VA,Floyd,False,09VA,,09VA,,,
587,09VG,heliport,Augusta Medical Center Heliport,38.09080123901367,-78.98500061035156,1390.0,VA,Fishersville,False,09VG,,09VG,,,
588,09W,heliport,South Capitol Street Heliport,38.86869812011719,-77.00749969482422,10.0,DC,Washington,False,09W,,09W,,,
589,09WA,heliport,Holy Family Hospital Heliport,47.71039962768555,-117.40699768066406,2081.0,WA,Spokane,False,09WA,,09WA,,,
590,09WI,small_airport,Parkway Farm Strip,44.00360107421875,-91.30760192871094,705.0,WI,Holmen,False,09WI,,09WI,,,
591,09XS,heliport,Baptist Medical Center Heliport,29.433000564575195,-98.49220275878906,710.0,TX,San Antonio,False,09XS,,09XS,,,
592,09Y,seaplane_base,Wipline Seaplane Base,44.81660079956055,-93.0155029296875,687.0,MN,Inver Grove Hgts,False,09Y,,09Y,,,
593,0AA6,heliport,Big Salmon Heliport,59.403055,-136.013611,292.0,AK,Haines,False,0AA6,,0AA6,,,
594,0AA7,small_airport,Kalifonsky Meadows Airport,60.491537,-151.2352525,65.0,AK,Kenai,False,0AA7,,0AA7,,,
595,0AK,small_airport,Pilot Station Airport,61.934601,-162.899994,305.0,AK,Pilot Station,True,,PQS,0AK,,https://en.wikipedia.org/wiki/Pilot_Station_Airport,
596,0AK0,small_airport,Scotts Airport,64.39250183105469,-146.86199951171875,800.0,AK,North Pole,False,0AK0,,0AK0,,,
597,0AK1,small_airport,Anderson Lake Airport,61.61690139770508,-149.32200622558594,463.0,AK,Wasilla,False,0AK1,,0AK1,,,
598,0AK2,small_airport,Yentna Bend Strip,61.725556000000005,-150.67861100000002,81.0,AK,Willow,False,0AK2,,0AK2,,,
599,0AK3,small_airport,Parker Lake Airport,62.0359001159668,-150.49400329589844,250.0,AK,Montana Creek,False,0AK3,,0AK3,,,
600,0AK5,small_airport,Young Creek Airport,61.355352,-142.731832,1580.0,AK,May Creek,False,0AK5,,0AK5,,,
601,0AK6,small_airport,Victory Airport,61.80339813232422,-147.94400024414062,1800.0,AK,Victory Bible Camp,False,0AK6,,0AK6,,,
602,0AK7,small_airport,Bradley Lake Hydroelectri Project Airstrip,59.776100158691406,-150.95899963378906,18.0,AK,Homer,False,0AK7,,0AK7,,,
603,0AK8,closed,Pollux Heliport,64.89583499999999,-147.497501,515.0,AK,North Pole,False,,,,,,0AK8
604,0AK9,small_airport,Falcon Lake Strip,61.33259963989258,-150.0590057373047,110.0,AK,Point Mackenzie,False,0AK9,,0AK9,,,
605,0AL0,heliport,Huntsville Field,34.688400268554695,-86.58889770507812,619.0,AL,Huntsville,False,0AL0,,0AL0,,,
606,0AL1,small_airport,Resort Airport,30.44389915466309,-87.65689849853516,97.0,AL,Foley,False,0AL1,,0AL1,,,
607,0AL2,heliport,Clay County Hospital Heliport,33.275001525878906,-85.83329772949219,1040.0,AL,Ashland,False,0AL2,,0AL2,,,
608,0AL3,heliport,Hospital Pad Heliport,31.430599212646484,-86.94029998779297,295.0,AL,Evergreen,False,0AL3,,0AL3,,,
609,0AL4,heliport,Dekalb Regional Medical Center Heliport,34.442141,-85.75579300000001,870.0,AL,Fort Payne,False,0AL4,,0AL4,,,B.M.C. - De Kalb Heliport
610,0AL5,small_airport,Flomaton Airport,31.03219985961914,-87.25279998779297,247.0,AL,Flomaton,False,0AL5,,0AL5,,,
611,0AL6,heliport,D.W. Mcmillian Memorial Hospital Heliport,31.127199172973636,-87.07330322265625,155.0,AL,Brewton,False,0AL6,,0AL6,,,
612,0AL7,heliport,Gadsden Regl Medical Center Heliport,34.00830078125,-85.96530151367188,621.0,AL,Gadsden,False,0AL7,,0AL7,,,
613,0AL8,heliport,Brookwood Medical Center Heliport,33.46390151977539,-86.77310180664062,763.0,AL,Birmingham,False,0AL8,,0AL8,,,
614,0AL9,small_airport,Wilson Creek Airport,34.84999847412109,-87.63249969482422,590.0,AL,Florence,False,0AL9,,0AL9,,,
615,0AR0,heliport,Smh Heliport,36.18149948120117,-94.13710021972656,1352.0,AR,Springdale,False,0AR0,,0AR0,,,
616,0AR1,small_airport,Hooterville South Airport,35.09469985961914,-93.2020034790039,370.0,AR,Centerville,False,0AR1,,0AR1,,,
617,0AR2,small_airport,Mission Field-Marotti Memorial Airport,35.26679992675781,-90.35009765625,217.0,AR,Crawfordsville,False,0AR2,,0AR2,,,
618,0AR3,closed,Taylor's Air Strip,35.898998,-93.26100100000001,2160.0,AR,Deer,False,,,,,,0AR3
619,0AR4,heliport,Ozarks Community Hospital Heliport,36.409290000000006,-94.46005,1251.0,AR,Gravette,False,0AR4,,0AR4,,,Gravette Medical Center Hospital Heliport
620,0AR5,heliport,Rgnl Medical Center Heliport,35.83620071411133,-90.70179748535156,382.0,AR,Jonesboro,False,0AR5,,0AR5,,,
621,0AR6,heliport,Ami National Park Medical Center Heliport,34.48149871826172,-93.03099822998048,547.0,AR,Hot Springs,False,0AR6,,0AR6,,,
622,0AR7,closed,Yancopin Airport,33.9501,-91.181198,150.0,AR,Watson,False,,,,,,0AR7
623,0AR8,heliport,Howard Memorial Hospital Heliport,33.95009994506836,-93.8520965576172,549.0,AR,Nashville,False,0AR8,,0AR8,,,
624,0AR9,heliport,Eureka Springs Hospital Heliport,36.40010070800781,-93.74349975585938,1540.0,AR,Eureka Springs,False,0AR9,,0AR9,,,
625,0AZ0,heliport,Arizona Heart Hospital Heliport,33.481300354003906,-112.04000091552734,1161.0,AZ,Phoenix,False,0AZ0,,0AZ0,,,
626,0AZ1,small_airport,Taylor Field,32.300899505615234,-111.3239974975586,2130.0,AZ,Marana,False,0AZ1,,0AZ1,,,
627,0AZ2,small_airport,Western Sky Airport,33.778099060058594,-113.64199829101562,1930.0,AZ,Salome,False,0AZ2,,0AZ2,,,
628,0AZ4,small_airport,Flying Bucket Ranch Airport,32.9822998046875,-112.28700256347656,1505.0,AZ,Mobile,False,0AZ4,,0AZ4,,,
629,0AZ5,small_airport,Castle Well Airport,33.86589813232422,-112.60299682617188,2080.0,AZ,Morristown,False,0AZ5,,0AZ5,,,
630,0AZ6,heliport,St Joseph's Hospital Heliport,33.4817008972,-112.077003479,1213.0,AZ,Phoenix,False,0AZ6,,0AZ6,,,
631,0AZ7,heliport,Sunstate Heliport,33.44369888305664,-111.96299743652344,1180.0,AZ,Phoenix,False,0AZ7,,0AZ7,,,
632,0B2,small_airport,Brewer Airport,44.76369857788086,-68.76779937744139,124.0,ME,Brewer,False,0B2,,0B2,,,
633,0B7,small_airport,Warren-Sugarbush Airport,44.1166992188,-72.8271026611,1470.0,VT,Warren,False,0B7,,0B7,,https://en.wikipedia.org/wiki/Warren-Sugarbush_Airport,
634,0C1,small_airport,Triple R Airport,39.48780059814453,-94.78050231933594,1000.0,MO,Dearborn,False,0C1,,0C1,,,
635,0C2,small_airport,Hinckley Airport,41.77090072631836,-88.70339965820312,760.0,IL,Hinckley,False,0C2,,0C2,,,
636,0C5,small_airport,Canadian Lakes Airport,43.57640075683594,-85.28060150146484,960.0,MI,Mecosta,False,0C5,,0C5,,,
637,0C7,small_airport,Grandpas' Farm Mendota Airport,41.521999,-89.132599,727.0,IL,Mendota,False,IL22,,IL22,,,0C7
638,0C8,small_airport,Cushing Field Ltd Airport,41.51950073242188,-88.60559844970703,640.0,IL,Newark,False,0C8,,0C8,,,
639,0C9,heliport,Coach & Paddock Heliport,40.63819885253906,-74.97570037841797,320.0,NJ,Clinton,False,0C9,,0C9,,,
640,0CA0,closed,Drew Medical Center Heliport,33.923302,-118.241997,180.0,CA,Los Angeles,False,,,,,,0CA0
641,0CA1,closed,Northside Airpark,34.9883003235,-120.458000183,190.0,CA,Santa Maria,False,,,,,,0CA1
642,0CA2,heliport,Va Greater Los Angeles Health Care Center Heliport,34.04919815063477,-118.45600128173828,294.0,CA,West Los Angeles,False,0CA2,,0CA2,,,
643,0CA3,small_airport,Crawford Airport,34.587501525878906,-120.01300048828124,570.0,CA,Santa Ynez,False,0CA3,,0CA3,,,
644,0CA4,small_airport,Shepherd Farm Airport,34.6222,-120.065002,660.0,CA,Santa Ynez,False,0CA4,,0CA4,,,Shepherd Ranch
645,0CA5,small_airport,Hoffman Private Airport,33.14310073852539,-116.74500274658205,3100.0,CA,Santa Ysabel,False,0CA5,,0CA5,,,
646,0CA6,small_airport,Emory Ranch Airport,32.749444399999994,-116.0161111,480.0,CA,Ocotillo,False,0CA6,,0CA6,,,
647,0CA7,heliport,Boeing Seal Beach (Rooftop) Heliport,33.7569999695,-118.08799743700001,158.0,CA,Seal Beach,False,0CA7,,0CA7,,,
648,0CA8,small_airport,Ward Ranch Airport,33.4277992249,-116.84300231899999,2500.0,CA,Aguanga,False,0CA8,,0CA8,,,
649,0CA9,small_airport,Blech Ranch Airport,35.5950012207,-120.33899688700001,1140.0,CA,Shandon,False,0CA9,,0CA9,,,
650,0CD0,heliport,Delta County Memorial Hospital Heliport,38.745155,-108.047973,5000.0,CO,Delta,False,0CD0,,0CD0,,,
651,0CD1,heliport,Colorado Plains Medical Center Heliport,40.2610917,-103.79633890000001,4356.0,CO,Fort Morgan,False,0CD1,,0CD1,,,
652,0CD2,small_airport,Foxx Valley Airport,38.652500152600005,-104.23400116,5800.0,CO,Yoder,False,0CD2,,0CD2,,,
653,0CD3,heliport,Branch's Heliport,40.3479995728,-104.52799987799999,4635.0,CO,Kersey,False,0CD3,,0CD3,,,
654,0CD4,heliport,Kauffman Heliport,40.1463012695,-104.887001038,5120.0,CO,Denver,False,0CD4,,0CD4,,,
655,0CD5,small_airport,Pinon Canyon Airport,37.4905014038,-104.14399719200001,5686.0,CO,Trinidad,False,0CD5,,0CD5,,,
656,0CD6,heliport,Exempla Good Samaritan Heliport,39.971698761,-105.084999084,5204.0,CO,Lafayette,False,0CD6,,0CD6,,,
657,0CD7,small_airport,Fox Hole Airport,40.004699707,-105.071998596,5135.0,CO,Lafayette,False,0CD7,,0CD7,,,
658,0CD8,heliport,Prowers Medical Center Heliport,38.071098327600005,-102.60900116,3575.0,CO,Lamar,False,0CD8,,0CD8,,,
659,0CD9,heliport,Swedish S.W. Medical Heliport,39.603099823,-105.09100341799999,5563.0,CO,Littleton,False,0CD9,,0CD9,,,
660,0CL0,small_airport,Yosemite Hidden Lake Ranch Airport,37.11800003049999,-119.913002014,500.0,CA,Raymond,False,0CL0,,0CL0,,,
661,0CL1,small_airport,Krey Field Airport,34.5694007874,-117.555999756,3042.0,CA,Adelanto,False,0CL1,,0CL1,,,
662,0CL2,heliport,Parking Lot Heliport,32.5938987732,-117.084999084,,CA,Chula Vista,False,0CL2,,0CL2,,,
663,0CL3,small_airport,John Nichol's Field Airport,32.633098602299995,-116.892997742,490.0,CA,Chula Vista,False,0CL3,,0CL3,,,
664,0CL4,heliport,Glen Fed Heliport,34.1571998596,-118.254997253,770.0,CA,Glendale,False,0CL4,,0CL4,,,
665,0CL5,heliport,The Atrium Heliport,33.6706008911,-117.85800170899999,46.0,CA,Irvine,False,0CL5,,0CL5,,,
666,0CL6,small_airport,Bohunk's Airpark,34.694698333699996,-118.282997131,2410.0,CA,Lancaster,False,0CL6,,0CL6,,,
667,0CL7,heliport,Good Samaritan Hospital Heliport,34.054901,-118.264967,473.0,CA,Los Angeles,False,0CL7,,0CL7,,,
668,0CL8,small_airport,Tera Ultralightport,35.5913009644,-117.634002686,2510.0,CA,Ridgecrest,False,0CL8,,0CL8,,,
669,0CL9,heliport,Sce San Jacinto Valley Service Center Heliport,33.741100311299995,-117.15100097700001,1482.0,CA,Romoland,False,0CL9,,0CL9,,,
670,0CN1,small_airport,Fiorini Ranch Airport,37.452178,-120.764758,140.0,CA,Delhi,False,0CN1,,0CN1,,,
671,0CN2,small_airport,Sutter Butte Dusters Airport,39.228621999999994,-121.68826499999999,67.0,CA,Live Oak,False,0CN2,,0CN2,,,
672,0CO0,heliport,Longmont United Hospital Heliport,40.178901672399995,-105.125999451,5047.0,CO,Longmont,False,0CO0,,0CO0,,,
673,0CO1,small_airport,Dave's Airport,40.0332984924,-105.124000549,5170.0,CO,Louisville,False,0CO1,,0CO1,,,
674,0CO2,small_airport,Crested Butte Airpark,38.851918,-106.92834099999999,8980.0,CO,Crested Butte,False,0CO2,CSE,0CO2,,,Buckhorn Ranch
675,0CO3,closed,Greggs Nr 1 Airport,39.8894,-104.544997,5373.0,CO,Bennett,False,,,,,,0CO3
676,0CO4,heliport,Geo-Seis Helicopters Heliport,40.589900970500004,-105.04599762,4935.0,CO,Fort Collins,False,0CO4,,0CO4,,,
677,0CO5,small_airport,Chenoweth Airport,39.8333015442,-103.58999633799999,4697.0,CO,Last Chance,False,0CO5,,0CO5,,,
678,0CO6,small_airport,Flying M & M Ranch Airport,38.2193984985,-108.21299743700001,8000.0,CO,Norwood,False,0CO6,,0CO6,,,
679,0CO7,heliport,Century Helicopters Heliport,40.5854988098,-105.040000916,4935.0,CO,Fort Collins,False,0CO7,,0CO7,,,
680,0CO8,small_airport,Cartwheel Airport,40.2083015442,-105.01300048799999,5010.0,CO,Mead,False,0CO8,,0CO8,,,
681,0CO9,small_airport,Van Treese Airport,37.6582984924,-106.03399658200001,7613.0,CO,Monte Vista,False,0CO9,,0CO9,,,
682,0CT0,heliport,Sharon Hospital Heliport,41.8811988831,-73.48100280759998,640.0,CT,Sharon,False,0CT0,,0CT0,,,
683,0CT1,heliport,Bristol-Myers Squibb Company Heliport,41.48479843139648,-72.7562026977539,350.0,CT,Wallingford,False,0CT1,,0CT1,,,
684,0CT2,heliport,Windham Hospital Heliport,41.71699905395508,-72.22589874267578,330.0,CT,Willimantic,False,0CT2,,0CT2,,,
685,0CT3,heliport,N B G H Heliport,41.661598205566406,-72.78790283203125,431.0,CT,New Britain,False,0CT3,,0CT3,,,
686,0CT4,heliport,Burke Heliport,41.50619888305664,-72.9397964477539,400.0,CT,Prospect,False,0CT4,,0CT4,,,
687,0CT5,heliport,St Francis Hospital Heliport,41.77450180053711,-72.6989974975586,184.0,CT,Hartford,False,0CT5,,0CT5,,,
688,0CT6,heliport,Middletown Heliport,41.5968017578125,-72.70449829101562,113.0,CT,Middletown,False,0CT6,,0CT6,,,
689,0CT7,heliport,Bridgeport Hospital Heliport,41.18840026855469,-73.16619873046875,80.0,CT,Bridgeport,False,0CT7,,0CT7,,,
690,0CT8,heliport,Danbury Hospital Heliport,41.40560150146485,-73.4447021484375,510.0,CT,Danbury,False,0CT8,,0CT8,,,
691,0CT9,heliport,Hartford Hospital Heliport,41.75450134277344,-72.67870330810547,211.0,CT,Hartford,False,0CT9,,0CT9,,,
692,0D6,small_airport,Wilber Municipal Airport,40.474998474121094,-96.98780059814452,1400.0,NE,Wilber,False,0D6,,0D6,,,
693,0D7,small_airport,Ada Airport,40.79059982299805,-83.8291015625,949.0,OH,Ada,False,0D7,,0D7,,,
694,0D9,small_airport,Air Park North,44.958,-84.9587,1170.0,MI,Alba,False,MI30,,MI30,http://airparknorth.net/?page_id=6,,"0D9, 24MI"
695,0E9,small_airport,Corydon Airport,40.75450134277344,-93.24130249023438,1020.0,IA,Corydon,False,0E9,,0E9,,,
696,0FA0,heliport,Doral Resort & Country Club Heliport,25.81290054321289,-80.33889770507812,6.0,FL,Miami,False,0FA0,,0FA0,,,
697,0FA1,small_airport,Ott's Landing Airport,27.3039,-81.880403,65.0,FL,Arcadia,False,0FA1,,0FA1,,,Frierson Grove Airport
698,0FA2,heliport,Doctors Memorial Hospital #2 Heliport,30.119753000000003,-83.592732,57.0,FL,Perry,False,0FA2,,0FA2,,,
699,0FA5,seaplane_base,Briley Farm Seaplane Base,28.5727778,-81.62861109999999,66.0,FL,Oakland,False,0FA5,,0FA5,,,
700,0FD0,small_airport,The 2A Ranch Airport,29.2675,-81.230103,40.0,FL,Ormond Beach,False,0FD0,,0FD0,,,Big 'G' Airport
701,0FD1,heliport,Panhandle Helicopter Llc Heliport,30.214099884,-85.8722000122,20.0,FL,Panama City Beach,False,0FD1,,0FD1,,,
702,0FD2,heliport,Dolphin Stadium Heliport,25.959992638299997,-80.23700259630002,8.0,FL,Miami,False,0FD2,,0FD2,,,
703,0FD3,small_airport,Dugger Field,30.496400833129886,-86.09380340576172,70.0,FL,Freeport,False,0FD3,,0FD3,,,
704,0FD4,heliport,Cloverleaf Farms Ii Inc. Heliport,29.3614006042,-82.2081985474,100.0,FL,Reddick,False,0FD4,,0FD4,,,
705,0FD5,small_airport,Breezy Knoll Airport,30.820199966430664,-86.34439849853516,235.0,FL,Defuniak Springs,False,0FD5,,0FD5,,,
706,0FD6,seaplane_base,Fulton Seaplane Base,27.90749931335449,-80.48639678955078,,FL,Sebastian,False,0FD6,,0FD6,,,
707,0FD9,small_airport,Joy Farms Airport,30.652099609375,-86.1093978881836,290.0,FL,Defuniak Springs,False,0FD9,,0FD9,,,
708,0FL0,small_airport,Harper's Fly-In Ranch Airport,26.730600357055664,-81.16390228271484,30.0,FL,Clewiston,False,0FL0,,0FL0,,,
709,0FL1,closed,Thompson Airfield,29.983299,-82.83560200000001,110.0,FL,Branford,False,,,,,,0FL1
710,0FL2,seaplane_base,Alligator Drink Seaplane Base,28.787799835205078,-81.16419982910156,19.0,FL,Geneva,False,0FL2,,0FL2,,,
711,0FL3,heliport,Old Town Ems Heliport,29.60280036926269,-82.98169708251953,25.0,FL,Old Town,False,0FL3,,0FL3,,,
712,0FL4,heliport,Jackson Heliport,30.70499992370605,-85.37830352783203,110.0,FL,Alford,False,0FL4,,0FL4,,,
713,0FL5,seaplane_base,Lake Conway South Seaplane Base,28.458599090576172,-81.34970092773438,80.0,FL,Belle Isle,False,0FL5,,0FL5,,,
714,0FL6,closed,Stanchester Airport,27.805901000000002,-82.140098,94.0,FL,Lithia,False,,,,,,0FL6
715,0FL7,heliport,Wcpx Tv-6 Heliport,28.610300064086914,-81.41940307617188,114.0,FL,Orlando,False,0FL7,,0FL7,,,
716,0FL8,seaplane_base,Gary Gale Seaplane Base,30.19389915466309,-81.68190002441406,,FL,Jacksonville,False,0FL8,,0FL8,,,
717,0FL9,small_airport,Mc Daniel Ranch Inc. Airport,26.393899917600002,-81.0231018066,18.0,FL,Clewiston,False,0FL9,,0FL9,,,
718,0G0,small_airport,North Buffalo Suburban Airport,43.103199,-78.7033,588.0,NY,Lockport,False,K0G0,,0G0,,,
719,0G5,seaplane_base,Grand Marais/Cook County Seaplane Base,47.8263,-90.3835,1635.0,MN,Grand Marais,False,0G5,,0G5,http://www.boreal.org/airport/,https://en.wikipedia.org/wiki/Grand_Marais/Cook_County_Seaplane_Base,Devil Track Resort
720,0GA0,small_airport,Halls Flying Ranch Airport,33.356201171875,-84.36710357666016,800.0,GA,Hampton,False,0GA0,,0GA0,,,
721,0GA1,small_airport,Mustang Field,34.477901458740234,-82.89710235595703,693.0,GA,Hartwell,False,0GA1,,0GA1,,,
722,0GA2,small_airport,"Airnautique, Inc. Airport",34.377899169921875,-82.9457015991211,720.0,GA,Hartwell,False,0GA2,,0GA2,,,
723,0GA3,small_airport,Ayresouth Airport,33.77009963989258,-85.06079864501953,1287.0,GA,Temple,False,0GA3,,0GA3,,,
724,0GA4,small_airport,Paradise Falls Airport,33.81290054321289,-83.50569915771484,736.0,GA,High Shoals,False,0GA4,,0GA4,,,
725,0GA5,heliport,Big Canoe Heliport,34.45479965209961,-84.28910064697266,1475.0,GA,Jasper,False,0GA5,,0GA5,,,
726,0GA6,small_airport,Sunset Strip,33.7333984375,-83.81880187988281,780.0,GA,Jersey,False,0GA6,,0GA6,,,
727,0GA7,small_airport,Hickory Level Airfield,33.683399200439446,-84.9999008178711,1080.0,GA,Temple,False,0GA7,,0GA7,,,
728,0GA8,small_airport,Paso Fino Farm Airport,30.88710021972656,-83.41600036621094,200.0,GA,Valdosta,False,0GA8,,0GA8,,,
729,0GA9,small_airport,Roberta Industrial Park Airport,32.71390151977539,-84.02749633789062,505.0,GA,Roberta,False,0GA9,,0GA9,,,
730,0GE0,small_airport,Pinewood Airport,33.782100677490234,-84.80079650878906,1085.0,GA,Douglasville,False,0GE0,,0GE0,,,
731,0GE1,small_airport,Crystal Lake Airpark,31.66550064086914,-83.44709777832031,327.0,GA,Irwinville,False,0GE1,,0GE1,,,
732,0GE3,small_airport,Lookout Mountain Airport,34.90470123291016,-85.45970153808594,563.0,GA,Trenton,False,0GE3,,0GE3,,,
733,0GE4,small_airport,Pecan Patch Airstrip,33.33140182495117,-84.2667007446289,860.0,GA,Sunnyside,False,0GE4,,0GE4,,,
734,0GE5,small_airport,Mountain Airpark,34.561798095703125,-83.7135009765625,1438.0,GA,Cleveland,False,0GE5,,0GE5,,,
735,0GE7,small_airport,Carpenter Airport,33.520301818847656,-82.37249755859375,450.0,GA,Appling,False,0GE7,,0GE7,,,
736,0GE9,small_airport,Pegasus Ranch Airport,32.69390106201172,-81.79859924316406,230.0,GA,Rocky Ford,False,0GE9,,0GE9,,,
737,0H7,small_airport,Kahoka Municipal Airport,40.42160034179688,-91.706298828125,700.0,MO,Kahoka,False,0H7,,0H7,,,
738,0I2,small_airport,Brazil Clay County Airport,39.47669982910156,-87.09970092773438,645.0,IN,Brazil,False,0I2,,0I2,,,
739,0IA0,heliport,Knoxville Area Community Hospital Heliport,41.31689834594727,-93.09600067138672,927.0,IA,Knoxville,False,0IA0,,0IA0,,,
740,0IA1,heliport,St Anthony Regional Hospital Heliport,42.05830001831055,-94.86830139160156,1300.0,IA,Carroll,False,0IA1,,0IA1,,,
741,0IA2,heliport,Audubon County Memorial Hospital Heliport,41.71549987792969,-94.9385986328125,1320.0,IA,Audubon,False,0IA2,,0IA2,,,
742,0IA3,small_airport,Hawkeye Airport,42.43470001220703,-92.3280029296875,883.0,IA,Waterloo,False,0IA3,,0IA3,,,
743,0IA4,small_airport,Sharar Field,41.03340148925781,-91.05010223388672,700.0,IA,Mediapolis,False,0IA4,,0IA4,,,
744,0IA5,small_airport,Moore Private Airport,40.87220001220703,-93.26270294189452,1060.0,IA,Millerton,False,0IA5,,0IA5,,,
745,0IA6,small_airport,Rinehart Airport,41.65969848632813,-92.28990173339844,920.0,IA,Victor,False,0IA6,,0IA6,,,
746,0IA7,heliport,Cromwell Heliport,41.03889846801758,-94.46690368652344,1300.0,IA,Cromwell,False,0IA7,,0IA7,,,
747,0IA8,small_airport,Hannen Airport,42.22800064086914,-91.7509994506836,925.0,IA,Center Point,False,0IA8,,0IA8,,,
748,0IA9,heliport,Army Reserve Heliport,40.83340072631836,-91.30010223388672,725.0,IA,Middleton,False,0IA9,,0IA9,,,
749,0ID0,small_airport,South Fork Ranch Airport,43.60639953613281,-115.10700225830078,4861.0,ID,Featherville,False,0ID0,,0ID0,,,
750,0ID1,small_airport,Ziggy's Airport,42.64120101928711,-114.6050033569336,3225.0,ID,Filer,False,0ID1,,0ID1,,,
751,0ID2,small_airport,Flying Joseph Ranch Airport,44.4429016113,-113.773002625,5600.0,ID,May,False,0ID2,,0ID2,,,
752,0ID3,small_airport,Coyote Run Airport,43.07580184936523,-115.6729965209961,3150.0,ID,Mountain Home,False,0ID3,,0ID3,,,
753,0ID4,small_airport,Black Butte Ranch Airport,43.047698974609375,-114.47000122070312,4020.0,ID,Shoshone,False,0ID4,,0ID4,,,
754,0ID5,small_airport,Ez Lope Ranch Airport,43.0531005859375,-116.46199798583984,3130.0,ID,Oreana,False,0ID5,,0ID5,,,
755,0ID6,heliport,Steele Memorial Heliport,45.173790999999994,-113.891423,4004.0,ID,Salmon,False,67ID,,67ID,,,0ID6
756,0ID7,small_airport,Z X Ranch Airport,43.230308,-116.76319199999999,3820.0,ID,Murphy,False,0ID7,,0ID7,,,
757,0ID8,small_airport,Pinnacle Airport,45.775197,-116.178475,3800.0,ID,Grangeville,False,0ID8,,0ID8,,,
758,0ID9,small_airport,Corral Creek Airport,46.785278000000005,-116.471131,2895.0,ID,Helmer,False,0ID9,,0ID9,,,
759,0II0,small_airport,Chuck's Airport,40.2599983215332,-85.25330352783203,955.0,IN,Albany,False,0II0,,0II0,,,
760,0II1,small_airport,Unsicker Airport,40.4281005859375,-86.1532974243164,816.0,IN,Bremen,False,0II1,,0II1,,,
761,0II2,small_airport,Creighton Airport,41.457298278808594,-86.12439727783203,820.0,IN,Bremen,False,0II2,,0II2,,,
762,0II3,closed,Miller Strip,40.6278,-86.03780400000001,810.0,IN,Bunker Hill,False,,,,,,0II3
763,0II5,small_airport,Marshall Field,40.65950012207031,-86.8572006225586,705.0,IN,Chalmers,False,0II5,,0II5,,,
764,0II6,small_airport,Kropf Airport,41.64310073852539,-85.82969665527344,810.0,IN,Goshen,False,0II6,,0II6,,,
765,0II7,small_airport,Frost Field,39.79560089111328,-85.78610229492188,900.0,IN,Greenfield,False,0II7,,0II7,,,
766,0II8,small_airport,Sutton's Field,41.324798583984375,-87.47589874267578,740.0,IN,Lowell,False,0II8,,0II8,,,
767,0II9,small_airport,Winters Airport,39.53419876098633,-86.57720184326172,755.0,IN,Hall,False,0II9,,0II9,,,
768,0IL0,heliport,Hamilton Memorial Hospital Heliport,38.08670043945313,-88.53890228271484,440.0,IL,Mc Leansboro,False,0IL0,,0IL0,,,
769,0IL1,heliport,Loyola University Medical Center Heliport,41.86090087890625,-87.8364028930664,623.0,IL,Broadview,False,0IL1,,0IL1,,,
770,0IL2,small_airport,Griffin Airport,38.803056,-88.997778,541.0,IL,Alma,False,0IL2,,0IL2,,,
771,0IL3,small_airport,Flying B Ranch Airport,40.15700149536133,-87.67449951171875,696.0,IL,Danville,False,0IL3,,0IL3,,,
772,0IL4,heliport,Good Samaritan Hospital Heliport,41.81890106201172,-88.00779724121094,772.0,IL,Downers Grove,False,0IL4,,0IL4,,,
773,0IL5,heliport,OSF St Luke Medical Center Heliport,41.221865,-89.947788,849.0,IL,Kewanee,False,0IL5,,0IL5,,,
774,0IL6,heliport,Kishwaukee Community Hospital Heliport,41.9631004333,-88.717300415,852.0,IL,De Kalb,False,0IL6,,0IL6,,,
775,0IL8,small_airport,Walter Airport,41.872501373291016,-88.72370147705078,890.0,IL,De Kalb,False,0IL8,,0IL8,,,
776,0IL9,small_airport,Jack W. Watson Airport,41.85480117797852,-88.78730010986328,880.0,IL,De Kalb,False,0IL9,,0IL9,,,
777,0IN1,small_airport,Snider Field,38.5,-87.59590148925781,400.0,IN,Decker,False,0IN1,,0IN1,,,
778,0IN2,small_airport,The Lazy K Airport,40.82780075073242,-85.08609771728516,835.0,IN,Tocsin,False,0IN2,,0IN2,,,
779,0IN3,small_airport,Graves Landing Strip,41.11669921875,-86.66670227050781,704.0,IN,Winamac,False,0IN3,,0IN3,,,
780,0IN4,small_airport,Air Park Field,41.12779998779297,-84.94719696044922,750.0,IN,Woodburn,False,0IN4,,0IN4,,,
781,0IN5,small_airport,Byrne Field,38.32899856567383,-86.03359985351562,800.0,IN,Byrneville,False,0IN5,,0IN5,,,
782,0IN7,closed,Roto-Whirl/Holiday Heliport,39.922501000000004,-86.226097,875.0,IN,Indianapolis,False,,,,,,0IN7
783,0IN8,closed,Roto-Whirl/Vantage Heliport,39.837299,-86.118597,726.0,IN,Indianapolis,False,,,,,,0IN8
784,0IN9,small_airport,Parrish Airport,37.99309921264648,-87.95140075683594,390.0,IN,Mount Vernon,False,0IN9,,0IN9,,,
785,0IS0,heliport,Trinity Medical Center West Heliport,41.48109817504883,-90.57140350341795,664.0,IL,Rock Island,False,0IS0,,0IS0,,,
786,0IS2,heliport,Evanston/Glenbrook Heliport,42.09310150146485,-87.85260009765625,678.0,IL,Glenview,False,0IS2,,0IS2,,,
787,0IS3,small_airport,Cady Aerial RLA Restricted Landing Area,41.660800933800004,-89.69360351559997,630.0,IL,Deer Grove,False,0IS3,,0IS3,,,
788,0IS4,small_airport,Dawson Farms Airport,39.76250076293945,-88.67150115966797,670.0,IL,Lovington,False,0IS4,,0IS4,,,
789,0IS6,heliport,Dongola Heliport,37.3656005859375,-89.1635971069336,383.0,IL,Dongola,False,0IS6,,0IS6,,,
790,0IS8,heliport,Blessing Hospital At 11th St Heliport,39.9364013672,-91.3990020752,650.0,IL,Quincy,False,0IS8,,0IS8,,,
791,0IS9,heliport,Bernardin Heliport,41.70840072631836,-89.2029037475586,830.0,IL,West Brooklyn,False,0IS9,,0IS9,,,
792,0J0,small_airport,Abbeville Municipal Airport,31.600200653076172,-85.23880004882812,468.0,AL,Abbeville,False,0J0,,0J0,,,
793,0J8,small_airport,Flying Ten Airport,29.618000030517575,-82.50869750976562,85.0,FL,Archer,False,0J8,,0J8,,,
794,0K6,small_airport,Dobie's Airport,36.178496,-95.58046800000001,610.0,OK,Inola,False,,,0K6,,,
795,0KS0,small_airport,J V Ranch Airport,38.63330078125,-95.92530059814452,1180.0,KS,Osage City,False,0KS0,,0KS0,,,
796,0KS2,closed,Kellie Mann Airfield,38.560001,-95.309097,1045.0,KS,Ottawa,False,,,,,,0KS2
797,0KS3,small_airport,Camp Chippewa Airport,38.56669998168945,-95.3668975830078,1120.0,KS,Ottawa,False,0KS3,,0KS3,,,
798,0KS4,small_airport,Norris Airport,38.807239,-95.370056,1065.0,KS,Lawrence,False,0KS4,,0KS4,,,
799,0KS6,small_airport,Kendrigan Airport,37.45220184326172,-97.31780242919922,1240.0,KS,Peck,False,0KS6,,0KS6,,,
800,0KS7,small_airport,Mono Aircraft Airport,37.69279861450195,-97.88639831542969,1450.0,KS,Cheney,False,0KS7,,0KS7,,,
801,0KS8,small_airport,Pearce Field,37.38249969482422,-95.37470245361328,950.0,KS,Parsons,False,0KS8,,0KS8,,,
802,0KS9,small_airport,Lmn 120 Airport,37.51589965820313,-96.9197998046875,1330.0,KS,Douglas,False,0KS9,,0KS9,,,
803,0KY0,small_airport,Owen Air Park,38.62279891967773,-84.77890014648438,890.0,KY,Owenton,False,0KY0,,0KY0,,,
804,0KY1,small_airport,Arnemann Farms Airport,36.76559829711914,-86.61830139160156,504.0,KY,Franklin,False,0KY1,,0KY1,,,
805,0KY2,heliport,Mgt Station 2105 Heliport,37.50559997558594,-86.8375015258789,540.0,KY,Hartford,False,0KY2,,0KY2,,,
806,0KY3,closed,Tennessee Gas Heliport,38.561403999999996,-83.952795,604.0,KY,Load,False,,,,,,0KY3
807,0KY4,small_airport,Cambron Field,37.56439971923828,-87.08190155029297,427.0,KY,Owensboro,False,0KY4,,0KY4,,,
808,0KY5,small_airport,Falin Landing Strip,36.8125,-86.375,600.0,KY,Bowling Green,False,0KY5,,0KY5,,,
809,0KY6,heliport,Tennessee Gas Heliport,38.2682991027832,-82.57749938964844,560.0,KY,Burnaugh,False,0KY6,,0KY6,,,
810,0KY7,small_airport,Clinton-Hickman County Airport,36.63610076904297,-88.99859619140625,360.0,KY,Clinton,False,0KY7,,0KY7,,,
811,0KY8,closed,Sky Airport,37.117199,-83.736099,850.0,KY,Manchester,False,,,,,,0KY8
812,0KY9,heliport,Pine Mountain Aero Heliport,37.11360168457031,-82.80359649658203,1300.0,KY,Whitesburg,False,0KY9,,0KY9,,,
813,0L4,small_airport,Lida Junction Airport,37.485801696777344,-117.19100189208984,4684.0,NV,Goldfield,False,0L4,,0L4,,https://en.wikipedia.org/wiki/Lida_Junction_Airport,
814,0L5,small_airport,Goldfield Airport,37.722751,-117.236368,5680.0,NV,Goldfield,False,NV50,,NV50,,https://en.wikipedia.org/wiki/Goldfield_Airport,0L5
815,0L6,heliport,Winn Parish Medical Center Heliport,31.923200607299805,-92.64569854736328,140.0,LA,Winnfield,False,0L6,,0L6,,,
816,0LA0,heliport,West Hackberry Heliport,30.00849914550781,-93.40019989013672,10.0,LA,Hackberry,False,0LA0,,0LA0,,,
817,0LA1,small_airport,Double H Ranch Airport,30.229400634765625,-90.97339630126952,15.0,LA,Gonzales,False,0LA1,,0LA1,,,
818,0LA2,small_airport,Don Babin-Private Airport,30.27799987792969,-90.96320343017578,17.0,LA,Gonzales,False,0LA2,,0LA2,,,
819,0LA3,small_airport,Belcher Airpatch Airport,32.749298095703125,-93.87349700927734,280.0,LA,Belcher,False,0LA3,,0LA3,,,
820,0LA4,heliport,North Caddo Medical Center Heliport,32.86410140991211,-93.98899841308594,200.0,LA,Vivian,False,0LA4,,0LA4,,,
821,0LA5,heliport,Conoco Inc Heliport,29.257999420166016,-89.96369934082031,3.0,LA,Grand Isle,False,0LA5,,0LA5,,,
822,0LA6,closed,Freeport Sulphur Heliport,29.2586,-89.959198,3.0,LA,Grand Isle,False,,,,,,0LA6
823,0LA7,heliport,Exxon Heliport,29.255800247192386,-89.96759796142578,6.0,LA,Grand Isle,False,0LA7,,0LA7,,,
824,0LA8,heliport,Jackson Parish Hospital Heliport,32.25170135498047,-92.71279907226562,183.0,LA,Jonesboro,False,0LA8,,0LA8,,,
825,0LA9,small_airport,Rebel Field,30.586299896240234,-90.86150360107422,74.0,LA,Watson,False,0LA9,,0LA9,,,
826,0LL0,small_airport,Kaufield Airport,42.26470184326172,-88.7300033569336,783.0,IL,Belvidere,False,0LL0,,0LL0,,,
827,0LL1,small_airport,Jerseyville Aviation Inc Airport,39.094200134277344,-90.31340026855469,604.0,IL,Jerseyville,False,0LL1,,0LL1,,,
828,0LL2,small_airport,Murk's Strip,40.738899231,-90.38069915770001,700.0,IL,St. Augustine,False,0LL2,,0LL2,,,
829,0LL3,small_airport,Koenig Airport,39.05500030517578,-90.34210205078124,614.0,IL,Jerseyville,False,0LL3,,0LL3,,,
830,0LL4,small_airport,Flaherty Field,41.4192008972168,-89.12310028076172,664.0,IL,La Salle,False,0LL4,,0LL4,,,
831,0LL5,small_airport,Busboom RLA Restricted Landing Area,40.1100006104,-88.07839965820001,675.0,IL,St Joseph,False,0LL5,,0LL5,,,
832,0LL6,small_airport,Gord Airport,41.69839859008789,-88.60759735107422,710.0,IL,Sandwich,False,0LL6,,0LL6,,,
833,0LL7,heliport,Valley West Hospital Heliport,41.657994,-88.621297,670.0,IL,Sandwich,False,0LL7,,0LL7,,,Hospital Heliport
834,0LL9,closed,Savanna Army Depot Helipad,42.183399,-90.255698,650.0,IL,Savanna,False,,,,,,0LL9
835,0LS0,small_airport,Theriot Field,29.74970054626465,-90.73580169677734,13.0,LA,Thibodaux,False,0LS0,,0LS0,,,
836,0LS2,heliport,Evergreen Fourchon Heliport,29.11639976501465,-90.20220184326172,6.0,LA,Golden Meadow,False,0LS2,,0LS2,,,
837,0LS3,heliport,Evergreen Venice Heliport,29.29669952392578,-89.37439727783203,,LA,Venice,False,0LS3,,0LS3,,,
838,0LS4,closed,Buller's Airstrip,30.808701,-92.18800300000001,47.0,LA,Bunkie,False,,,,,,0LS4
839,0LS5,small_airport,Trahan Ultralightport,30.306900024414066,-92.12979888916016,40.0,LA,Cankton,False,0LS5,,0LS5,,,
840,0LS6,small_airport,Dufour Airport,30.787700653076172,-92.05039978027344,42.0,LA,Morrow,False,0LS6,,0LS6,,,
841,0LS7,small_airport,Morgan Field,30.61280059814453,-91.48419952392578,36.0,LA,New Roads,False,0LS7,,0LS7,,,
842,0LS8,small_airport,Lonesome Dove Airfield,30.28580093383789,-92.94129943847656,34.0,LA,Woodlawn,False,0LS8,,0LS8,,,
843,0LS9,small_airport,Huenefeld Airport,32.50429916381836,-91.98210144042969,72.0,LA,Monroe,False,0LS9,,0LS9,,,
844,0MA1,heliport,Massachusetts General Hospital Heliport,42.36370086669922,-71.06890106201172,214.0,MA,Boston,False,0MA1,,0MA1,,,
845,0MA2,heliport,Healthalliance Hospital-Leominster Heliport,42.54090118408203,-71.76280212402344,450.0,MA,Leominster,False,0MA2,,0MA2,,,
846,0MA3,heliport,Reh Heliport,41.78739929199219,-71.23179626464844,100.0,MA,Rehoboth,False,0MA3,,0MA3,,,
847,0MA4,heliport,Boston Medical Center Hospital Heliport,42.33359909057617,-71.07170104980469,19.0,MA,Boston,False,0MA4,,0MA4,,,
848,0MA5,heliport,Brockton Usar Center Heliport,42.05590057373047,-71.05590057373047,85.0,MA,Brockton,False,0MA5,,0MA5,,,
849,0MA6,heliport,Wbz Heliport,42.3651008605957,-71.13259887695312,9.0,MA,Boston,False,0MA6,,0MA6,,,
850,0MA8,heliport,Textron/Everett Heliport,42.404496,-71.07060200000001,40.0,MA,Everett,False,,,,,,0MA8
